CUSTOM.date [local];CUSTOM.updateTime [local];OSD.flyTime;OSD.flyTime [s];OSD.latitude;OSD.longitude;OSD.height [ft];OSD.heightMax [ft];OSD.vpsHeight [ft];OSD.altitude [ft];OSD.mileage [ft];OSD.hSpeed [MPH];OSD.hSpeedMax [MPH];OSD.xSpeed [MPH];OSD.xSpeedMax [MPH];OSD.ySpeed [MPH];OSD.ySpeedMax [MPH];OSD.zSpeed [MPH];OSD.zSpeedMax [MPH];OSD.pitch;OSD.roll;OSD.yaw;OSD.yaw [360];OSD.directionOfTravel;OSD.flycState;OSD.flycCommand;OSD.flightAction;OSD.gpsNum;OSD.gpsLevel;OSD.isGPSUsed;OSD.nonGPSCause;OSD.droneType;OSD.isSwaveWork;OSD.waveError;OSD.goHomeStatus;OSD.batteryType;OSD.ctrlDevice;OSD.isOnGround;OSD.isMotorOn;OSD.isMotorBlocked;OSD.motorStartFailedCause;OSD.motorFailReason;OSD.isImuPreheated;OSD.imuInitFailReason;OSD.isAcceletorOverRange;OSD.isBarometerDeadInAir;OSD.isCompassError;OSD.isGoHomeHeightModified;OSD.canIOCWork;OSD.isNotEnoughForce;OSD.isOutOfLimit;OSD.isPropellerCatapult;OSD.isVibrating;OSD.isVisionUsed;OSD.voltageWarning;GIMBAL.mode;GIMBAL.pitch;GIMBAL.roll;GIMBAL.yaw;GIMBAL.yaw [360];GIMBAL.isPitchAtLimit;GIMBAL.isRollAtLimit;GIMBAL.isYawAtLimit;GIMBAL.isStuck;CAMERA.isPhoto;CAMERA.isVideo;CAMERA.filename;CAMERA.sdCardIsInserted;CAMERA.sdCardState;RC.downlinkSignal;RC.uplinkSignal;RC.aileron;RC.elevator;RC.throttle;RC.rudder;RC.mode;RC.goHomeDepressed;RC.recordDepressed;RC.shutterDepressed;RC.playbackDepressed;RC.wheelDepressed;RC.wheelOffset;RC.custom1Depressed;RC.custom2Depressed;RC.custom3Depressed;RC.custom4Depressed;BATTERY1.chargeLevel;BATTERY2.chargeLevel;BATTERY1.currentPV [V];BATTERY2.currentPV [V];BATTERY1.currentCapacity [mAh];BATTERY2.currentCapacity [mAh];BATTERY1.fullCapacity [mAh];BATTERY2.fullCapacity [mAh];BATTERY1.voltage [V];BATTERY2.voltage [V];BATTERY1.isCellVoltageEstimated;BATTERY1.cellVoltage1 [V];BATTERY1.cellVoltage2 [V];BATTERY1.cellVoltage3 [V];BATTERY1.cellVoltage4 [V];BATTERY1.cellVoltage5 [V];BATTERY1.cellVoltage6 [V];BATTERY1.cellVoltage7 [V];BATTERY1.cellVoltage8 [V];BATTERY1.cellVoltage9 [V];BATTERY1.cellVoltage10 [V];BATTERY1.cellVoltage11 [V];BATTERY1.cellVoltage12 [V];BATTERY1.maxCellVoltageDeviation;BATTERY1.isCellVoltageDeviationHigh;BATTERY1.isVoltageLow;BATTERY2.isCellVoltageEstimated;BATTERY2.cellVoltage1 [V];BATTERY2.cellVoltage2 [V];BATTERY2.cellVoltage3 [V];BATTERY2.cellVoltage4 [V];BATTERY2.cellVoltage5 [V];BATTERY2.cellVoltage6 [V];BATTERY2.cellVoltage7 [V];BATTERY2.cellVoltage8 [V];BATTERY2.cellVoltage9 [V];BATTERY2.cellVoltage10 [V];BATTERY2.cellVoltage11 [V];BATTERY2.cellVoltage12 [V];BATTERY2.maxCellVoltageDeviation;BATTERY2.isCellVoltageDeviationHigh;BATTERY2.isVoltageLow;BATTERY1.current [A];BATTERY2.current [A];BATTERY1.temperature [F];BATTERY2.temperature [F];BATTERY1.minTemperature [F];BATTERY2.minTemperature [F];BATTERY1.maxTemperature [F];BATTERY2.maxTemperature [F];BATTERY.usefulTime [s];BATTERY.goHomeTime [s];BATTERY.landTime [s];BATTERY.goHomeBattery;BATTERY.landBattery;BATTERY.safeFlyRadius;BATTERY.volumeConsume;BATTERY.status;BATTERY.goHomeStatus;BATTERY.goHomeCountdown;BATTERY.lowWarning;BATTERY.lowWarningGoHome;BATTERY.seriousLowWarning;BATTERY.seriousLowWarningLanding;BATTERY1.timesCharged;BATTERY2.timesCharged;MC.failSafeAction;MC.isObstacleAvoidanceEnabled;MC.isCollisionAvoidanceEnabled;MC.isRthObstacleAvoidanceEnabled;MC.isBraking;MC.isAvoidingObstacle;MC.isAvoidingActiveObstacle;MC.isAscentLimitedByObstacle;MC.isLandingConfirmationNeeded;MC.atLowAltitudeLimit;MC.atDistanceLimit;MC.atAirportAltitudeLimit;MC.atAirportBoundary;HOME.latitude;HOME.longitude;HOME.distance [ft];HOME.height [ft];HOME.heightLimit [ft];HOME.isHomeRecord;HOME.goHomeMode;HOME.aircraftHeadDirection;HOME.isDynamicHomePointEnabled;HOME.isReachedLimitDistance;HOME.isReachedLimitHeight;HOME.isCompassCalibrating;HOME.compassCalibrationState;HOME.isMultipleFlightModeEnabled;HOME.isBeginnerMode;HOME.isIOCEnabled;HOME.iocMode;HOME.goHomeHeight [ft];HOME.courseLockAngle;HOME.forceLandingHeight [ft];HOME.dataRecorderFileIndex;WEATHER.windDirection;WEATHER.windRelativeDirection;WEATHER.windSpeed [MPH];WEATHER.maxWindSpeed [MPH];WEATHER.windStrength;WEATHER.isFacingWind;WEATHER.isFlyingIntoWind;RECOVER.appType;RECOVER.appVersion;RECOVER.aircraftName;RECOVER.aircraftSerial;RECOVER.cameraSerial;RECOVER.rcSerial;RECOVER.batterySerial;DETAILS.totalTime [s];DETAILS.totalDistance [ft];DETAILS.maxHeight [ft];DETAILS.maxHorizontalSpeed [MPH];DETAILS.maxVerticalSpeed [MPH];DETAILS.photoNum;DETAILS.videoTime [s];DETAILS.aircraftName;DETAILS.aircraftSerial;DETAILS.cameraSerial;DETAILS.rcSerial;DETAILS.batterySerial;DETAILS.appName;DETAILS.appType;DETAILS.appVersion;DETAILS.guid;SERIAL.flightController;SERIAL.camera;SERIAL.gimbal;SERIAL.rc;SERIAL.battery;SERIAL.battery2;APPGPS.latitude;APPGPS.longitude;APPGPS.accuracy;APP.tip;APP.warning
;;;;;;;;;;;;;;;;;;;;;;;;;;;;;;;;;;;;;;;;;;;;;;;;;;;;;;;;;;;;;;;;;;;;;;;;;;;;;;;;;;;;;;;;;;;;;;;;;;;;;;;;;;;;;;;;;;;;;;;;;;;;;;;;;;;;;;;;;;;;;;;;;;;;;;;;;;;;;;;;;;;;;;;;;;;;;;;;;;;;;;;;;;;;;;;;;;;;;;;;;;;;;;;;;;;;;;;;;;;;;;;;;;
11/13/2025;3:27:54.74 PM;1m 19.5s;79.5;411.458.353.764.122;249.153.112.047.979;407.1;407.4;37.0;635;18.7;0;0.316351;0;0.223694;0;0;0;0;-0.1;-0.4;168.4;168.4;;P-GPS (Brake);Other;;25;5;TRUE;;Matrice 350 RTK;FALSE;FALSE;;Smart;RC;FALSE;TRUE;FALSE;;;TRUE;;FALSE;FALSE;FALSE;FALSE;FALSE;FALSE;FALSE;FALSE;FALSE;FALSE;0;Follow Yaw;-76.7;0;173.2;173.2;FALSE;FALSE;FALSE;FALSE;TRUE;FALSE;;TRUE;Normal;100;100;1024;1024;1024;1024;N;FALSE;FALSE;FALSE;FALSE;FALSE;0;FALSE;FALSE;FALSE;FALSE;95;95;49.09;49.115;5788;5776;6055;6061;49.09;49.115;TRUE;4.094;4.094;4.094;4.094;4.094;4.094;4.094;4.094;4.094;4.094;4.094;4.094;;FALSE;FALSE;TRUE;4.093;4.093;4.093;4.093;4.093;4.093;4.093;4.093;4.093;4.093;4.093;4.093;;FALSE;FALSE;7.788;8.198;78.8;81.8;78.2;81.3;81.8;81.8;2534;125;41;14;8;118744.1;15832.55;;Idle;;20;;10;;;7;Go Home;TRUE;TRUE;TRUE;FALSE;FALSE;FALSE;FALSE;FALSE;FALSE;FALSE;FALSE;FALSE;411.458.472.517.014;249.153.077.241.714;4.4;;1640.4;TRUE;1;1;FALSE;FALSE;FALSE;FALSE;;TRUE;FALSE;FALSE;Course Lock;820.2;296.2;22.9;6;E;W;2.68;2.68;Calm;FALSE;TRUE;Android;4.0.0;djiaircraft;1581F6GKB235T004;1W8DJCH00159E1;4LGZL5D007002W;6JYPL4FDA0026Q;364.7;0.1;406.8;3.982.647;7.605.596;21;0;djiaircraft;1581F6GKB235T004;1W8DJCH00159E1;4LGZL5D007002W;6JYPL4FDA0026Q;DJI Pilot;Android;4.0.0;082508BD-3795-F845-5409-048D259E487A;1581F6GKB235T004015Y;1W8DJCH00159E1;;4LGZL5D007002W;1W8DJCH00159E1;6JYPL4FDA0026Q;411.458.448.333.333;249.153.243.333.333;113.5;;
11/13/2025;3:27:55.64 PM;1m 20.4s;80.4;41.145.835.466.569;249.153.109.870.849;407.1;407.4;37.0;635;18.9;0;0.316351;0;0.223694;0;0;0;0;0;-0.6;168.4;168.4;;P-GPS (Brake);Other;;25;5;TRUE;;Matrice 350 RTK;FALSE;FALSE;;Smart;RC;FALSE;TRUE;FALSE;;;TRUE;;FALSE;FALSE;FALSE;FALSE;FALSE;FALSE;FALSE;FALSE;FALSE;FALSE;0;Follow Yaw;-76.7;0;173.2;173.2;FALSE;FALSE;FALSE;FALSE;TRUE;FALSE;;TRUE;Normal;100;100;1024;1024;1024;1024;N;FALSE;FALSE;FALSE;FALSE;FALSE;0;FALSE;FALSE;FALSE;FALSE;95;95;49.124;49.124;11527;5757;12116;6061;49.124;49.124;TRUE;4.094;4.094;4.094;4.094;4.094;4.094;4.094;4.094;4.094;4.094;4.094;4.094;;FALSE;FALSE;TRUE;4.094;4.094;4.094;4.094;4.094;4.094;4.094;4.094;4.094;4.094;4.094;4.094;;FALSE;FALSE;15.986;8.122;81.8;81.8;78.2;81.3;81.8;81.8;2544;125;41;14;8;118991.3;15865.51;;Idle;;20;;10;;;7;Go Home;TRUE;TRUE;TRUE;FALSE;FALSE;FALSE;FALSE;FALSE;FALSE;FALSE;FALSE;FALSE;411.458.472.517.014;249.153.077.241.714;4.3;;1640.4;TRUE;1;1;FALSE;FALSE;FALSE;FALSE;;TRUE;FALSE;FALSE;Course Lock;820.2;296.2;22.9;6;E;W;2.68;2.68;Calm;FALSE;FALSE;Android;4.0.0;djiaircraft;1581F6GKB235T004;1W8DJCH00159E1;4LGZL5D007002W;6JYPL4FDA0026Q;364.7;0.1;406.8;3.982.647;7.605.596;21;0;djiaircraft;1581F6GKB235T004;1W8DJCH00159E1;4LGZL5D007002W;6JYPL4FDA0026Q;DJI Pilot;Android;4.0.0;082508BD-3795-F845-5409-048D259E487A;1581F6GKB235T004015Y;1W8DJCH00159E1;;4LGZL5D007002W;1W8DJCH00159E1;6JYPL4FDA0026Q;41.145.845;249.153.245;113.8;;
11/13/2025;3:28:40.14 PM;2m 4.9s;124.9;411.458.347.712.681;249.153.142.935.337;407.4;407.4;37.0;636;28.1;0.223694;0.316351;0;0.223694;-0.223694;0;0;0;-0.4;0.1;168.8;168.8;164.3;P-GPS (Brake);Other;;26;5;TRUE;;Matrice 350 RTK;FALSE;FALSE;;Smart;RC;FALSE;TRUE;FALSE;;;TRUE;;FALSE;FALSE;FALSE;FALSE;FALSE;FALSE;FALSE;FALSE;FALSE;FALSE;0;Follow Yaw;-5.6;0;-95;265;FALSE;FALSE;FALSE;FALSE;TRUE;FALSE;;TRUE;Normal;100;100;1024;1024;1024;1024;N;FALSE;FALSE;FALSE;FALSE;FALSE;0;FALSE;FALSE;FALSE;FALSE;93;92;48.866;48.9;5654;5612;6067;6061;48.866;48.9;TRUE;4.072;4.072;4.072;4.072;4.072;4.072;4.072;4.072;4.072;4.072;4.072;4.072;;FALSE;FALSE;TRUE;4.075;4.075;4.075;4.075;4.075;4.075;4.075;4.075;4.075;4.075;4.075;4.075;;FALSE;FALSE;7.94;8.122;78.9;82.0;78.2;81.3;82.0;82.0;2549;125;41;14;8;119895.7;15986.10;;Idle;;20;;10;;;7;Go Home;TRUE;TRUE;TRUE;FALSE;FALSE;FALSE;FALSE;FALSE;FALSE;FALSE;FALSE;FALSE;411.458.472.517.014;249.153.077.241.714;4.8;;1640.4;TRUE;1;1;FALSE;FALSE;FALSE;FALSE;;TRUE;FALSE;FALSE;Course Lock;820.2;296.2;22.9;6;SE;NW;2.9;2.9;Calm;TRUE;TRUE;Android;4.0.0;djiaircraft;1581F6GKB235T004;1W8DJCH00159E1;4LGZL5D007002W;6JYPL4FDA0026Q;364.7;0.1;406.8;3.982.647;7.605.596;21;0;djiaircraft;1581F6GKB235T004;1W8DJCH00159E1;4LGZL5D007002W;6JYPL4FDA0026Q;DJI Pilot;Android;4.0.0;082508BD-3795-F845-5409-048D259E487A;1581F6GKB235T004015Y;1W8DJCH00159E1;;4LGZL5D007002W;1W8DJCH00159E1;6JYPL4FDA0026Q;41.145.877;249.153.013.333.333;114.3;;
11/13/2025;3:28:40.94 PM;2m 5.7s;125.7;411.458.348.934.446;249.153.144.344.645;407.4;407.4;37.0;636;28.3;0.223694;0.316351;0;0.223694;-0.223694;0;0;0;-0.6;0.2;168.8;168.8;96.3;P-GPS (Brake);Other;;26;5;TRUE;;Matrice 350 RTK;FALSE;FALSE;;Smart;RC;FALSE;TRUE;FALSE;;;TRUE;;FALSE;FALSE;FALSE;FALSE;FALSE;FALSE;FALSE;FALSE;FALSE;FALSE;0;Follow Yaw;-5.6;0;-95;265;FALSE;FALSE;FALSE;FALSE;TRUE;FALSE;;TRUE;Normal;100;100;1024;1024;1024;1024;N;FALSE;FALSE;FALSE;FALSE;FALSE;0;FALSE;FALSE;FALSE;FALSE;93;92;48.866;48.897;5654;5612;6067;6061;48.866;48.897;TRUE;4.076;4.076;4.076;4.076;4.076;4.076;4.076;4.076;4.076;4.076;4.076;4.076;;FALSE;FALSE;TRUE;4.075;4.075;4.075;4.075;4.075;4.075;4.075;4.075;4.075;4.075;4.075;4.075;;FALSE;FALSE;7.94;8.092;78.9;82.0;78.2;81.3;82.0;82.0;2547;125;41;14;8;119972.8;15996.38;;Idle;;20;;10;;;7;Go Home;TRUE;TRUE;TRUE;FALSE;FALSE;FALSE;FALSE;FALSE;FALSE;FALSE;FALSE;FALSE;411.458.472.517.014;249.153.077.241.714;4.8;;1640.4;TRUE;1;1;FALSE;FALSE;FALSE;FALSE;;TRUE;FALSE;FALSE;Course Lock;820.2;296.2;22.9;6;SE;NW;2.68;2.9;Calm;TRUE;TRUE;Android;4.0.0;djiaircraft;1581F6GKB235T004;1W8DJCH00159E1;4LGZL5D007002W;6JYPL4FDA0026Q;364.7;0.1;406.8;3.982.647;7.605.596;21;0;djiaircraft;1581F6GKB235T004;1W8DJCH00159E1;4LGZL5D007002W;6JYPL4FDA0026Q;DJI Pilot;Android;4.0.0;082508BD-3795-F845-5409-048D259E487A;1581F6GKB235T004015Y;1W8DJCH00159E1;;4LGZL5D007002W;1W8DJCH00159E1;6JYPL4FDA0026Q;41.145.877;249.153.013.333.333;114.3;;
11/13/2025;3:28:49.87 PM;2m 14.6s;134.6;411.458.350.766.337;249.153.138.727.414;407.1;407.4;37.0;635;30.4;0.223694;0.316351;0;0.223694;-0.223694;0;0;0;-0.5;0.2;168.9;168.9;265.0;P-GPS (Brake);Other;;26;5;TRUE;;Matrice 350 RTK;FALSE;FALSE;;Smart;RC;FALSE;TRUE;FALSE;;;TRUE;;FALSE;FALSE;FALSE;FALSE;FALSE;FALSE;FALSE;FALSE;FALSE;FALSE;0;Follow Yaw;-7.1;0;-95.2;264.8;FALSE;FALSE;FALSE;FALSE;TRUE;FALSE;;TRUE;Normal;100;100;1024;1024;1024;1024;N;FALSE;FALSE;FALSE;FALSE;FALSE;0;FALSE;FALSE;FALSE;FALSE;92;92;48.848;48.846;11212;5576;12128;6061;48.848;48.846;TRUE;4.07;4.07;4.07;4.07;4.07;4.07;4.07;4.07;4.07;4.07;4.07;4.07;;FALSE;FALSE;TRUE;4.071;4.071;4.071;4.071;4.071;4.071;4.071;4.071;4.071;4.071;4.071;4.071;;FALSE;FALSE;16.048;8.092;82.0;82.0;78.2;81.3;82.0;82.0;2530;125;41;14;8;120202.7;16027.03;;Idle;;20;;10;;;7;Go Home;TRUE;TRUE;TRUE;FALSE;FALSE;FALSE;FALSE;FALSE;FALSE;FALSE;FALSE;FALSE;411.458.472.517.014;249.153.077.241.714;4.7;;1640.4;TRUE;1;1;FALSE;FALSE;FALSE;FALSE;;TRUE;FALSE;FALSE;Course Lock;820.2;296.2;22.9;6;SE;NW;2.68;2.9;Calm;TRUE;FALSE;Android;4.0.0;djiaircraft;1581F6GKB235T004;1W8DJCH00159E1;4LGZL5D007002W;6JYPL4FDA0026Q;364.7;0.1;406.8;3.982.647;7.605.596;21;0;djiaircraft;1581F6GKB235T004;1W8DJCH00159E1;4LGZL5D007002W;6JYPL4FDA0026Q;DJI Pilot;Android;4.0.0;082508BD-3795-F845-5409-048D259E487A;1581F6GKB235T004015Y;1W8DJCH00159E1;;4LGZL5D007002W;1W8DJCH00159E1;6JYPL4FDA0026Q;411.458.788.333.333;24.915.303;113.9;;
11/13/2025;3:28:50.08 PM;2m 14.8s;134.8;411.458.350.746.043;249.153.138.785.903;407.4;407.4;37.0;636;30.4;0.223694;0.316351;0;0.223694;-0.223694;0;0;0;-0.5;0.2;168.9;168.9;263.7;P-GPS (Brake);Other;;26;5;TRUE;;Matrice 350 RTK;FALSE;FALSE;;Smart;RC;FALSE;TRUE;FALSE;;;TRUE;;FALSE;FALSE;FALSE;FALSE;FALSE;FALSE;FALSE;FALSE;FALSE;FALSE;0;Follow Yaw;-7.1;0;-95.2;264.8;FALSE;FALSE;FALSE;FALSE;TRUE;FALSE;;TRUE;Normal;100;100;1024;1024;1024;1024;N;FALSE;FALSE;FALSE;FALSE;FALSE;0;FALSE;FALSE;FALSE;FALSE;92;92;48.848;48.846;11212;5576;12128;6061;48.848;48.846;TRUE;4.07;4.07;4.07;4.07;4.07;4.07;4.07;4.07;4.07;4.07;4.07;4.07;;FALSE;FALSE;TRUE;4.071;4.071;4.071;4.071;4.071;4.071;4.071;4.071;4.071;4.071;4.071;4.071;;FALSE;FALSE;16.048;8.092;82.0;82.0;78.2;81.3;82.0;82.0;2530;125;41;14;8;120202.7;16027.03;;Idle;;20;;10;;;7;Go Home;TRUE;TRUE;TRUE;FALSE;FALSE;FALSE;FALSE;FALSE;FALSE;FALSE;FALSE;FALSE;411.458.472.517.014;249.153.077.241.714;4.7;;1640.4;TRUE;1;1;FALSE;FALSE;FALSE;FALSE;;TRUE;FALSE;FALSE;Course Lock;820.2;296.2;22.9;6;SE;NW;2.68;2.9;Calm;TRUE;FALSE;Android;4.0.0;djiaircraft;1581F6GKB235T004;1W8DJCH00159E1;4LGZL5D007002W;6JYPL4FDA0026Q;364.7;0.1;406.8;3.982.647;7.605.596;21;0;djiaircraft;1581F6GKB235T004;1W8DJCH00159E1;4LGZL5D007002W;6JYPL4FDA0026Q;DJI Pilot;Android;4.0.0;082508BD-3795-F845-5409-048D259E487A;1581F6GKB235T004015Y;1W8DJCH00159E1;;4LGZL5D007002W;1W8DJCH00159E1;6JYPL4FDA0026Q;411.458.788.333.333;24.915.303;113.9;;
11/13/2025;3:28:51.04 PM;2m 15.8s;135.8;411.458.349.241.718;249.153.136.291.791;407.4;407.4;37.0;636;30.7;0.223694;0.316351;0;0.223694;-0.223694;0;0;0;-0.6;0.3;169;169;257.6;P-GPS (Brake);Other;;26;5;TRUE;;Matrice 350 RTK;FALSE;FALSE;;Smart;RC;FALSE;TRUE;FALSE;;;TRUE;;FALSE;FALSE;FALSE;FALSE;FALSE;FALSE;FALSE;FALSE;FALSE;FALSE;0;Follow Yaw;-7.1;0;-95.2;264.8;FALSE;FALSE;FALSE;FALSE;TRUE;FALSE;;TRUE;Normal;100;100;1024;1024;1024;1024;N;FALSE;FALSE;FALSE;FALSE;FALSE;0;FALSE;FALSE;FALSE;FALSE;92;92;48.828;48.851;5618;5576;6067;6061;48.828;48.851;TRUE;4.071;4.071;4.071;4.071;4.071;4.071;4.071;4.071;4.071;4.071;4.071;4.071;;FALSE;FALSE;TRUE;4.071;4.071;4.071;4.071;4.071;4.071;4.071;4.071;4.071;4.071;4.071;4.071;;FALSE;FALSE;7.924;8.015;79.1;82.0;78.2;81.3;82.0;82.0;2528;125;41;14;8;120205.7;16027.43;;Idle;;20;;10;;;7;Go Home;TRUE;TRUE;TRUE;FALSE;FALSE;FALSE;FALSE;FALSE;FALSE;FALSE;FALSE;FALSE;411.458.472.517.014;249.153.077.241.714;4.7;;1640.4;TRUE;1;1;FALSE;FALSE;FALSE;FALSE;;TRUE;FALSE;FALSE;Course Lock;820.2;296.2;22.9;6;SE;NW;2.68;2.9;Calm;TRUE;FALSE;Android;4.0.0;djiaircraft;1581F6GKB235T004;1W8DJCH00159E1;4LGZL5D007002W;6JYPL4FDA0026Q;364.7;0.1;406.8;3.982.647;7.605.596;21;0;djiaircraft;1581F6GKB235T004;1W8DJCH00159E1;4LGZL5D007002W;6JYPL4FDA0026Q;DJI Pilot;Android;4.0.0;082508BD-3795-F845-5409-048D259E487A;1581F6GKB235T004015Y;1W8DJCH00159E1;;4LGZL5D007002W;1W8DJCH00159E1;6JYPL4FDA0026Q;411.458.788.333.333;24.915.303;113.9;;
11/13/2025;3:28:59.24 PM;2m 24.0s;144.0;411.458.341.042.962;24.915.314.388.752;407.1;407.4;37.0;635;32.7;0.223694;0.447388;0;0.223694;-0.223694;0;0;0;-0.4;0.3;168.9;168.9;242.8;P-GPS (Brake);Other;;26;5;TRUE;;Matrice 350 RTK;FALSE;FALSE;;Smart;RC;FALSE;TRUE;FALSE;;;TRUE;;FALSE;FALSE;FALSE;FALSE;FALSE;FALSE;FALSE;FALSE;FALSE;FALSE;0;Follow Yaw;-9.7;0;-95.8;264.2;FALSE;FALSE;FALSE;FALSE;TRUE;FALSE;;TRUE;Normal;100;100;1024;1024;1024;1024;N;FALSE;FALSE;FALSE;FALSE;FALSE;0;FALSE;FALSE;FALSE;FALSE;92;91;48.764;48.806;5581;5557;6067;6061;48.764;48.806;TRUE;4.066;4.066;4.066;4.066;4.066;4.066;4.066;4.066;4.066;4.066;4.066;4.066;;FALSE;FALSE;TRUE;4.067;4.067;4.067;4.067;4.067;4.067;4.067;4.067;4.067;4.067;4.067;4.067;;FALSE;FALSE;7.986;8.062;79.1;82.0;78.2;81.3;82.2;82.2;2518;125;41;14;8;119884.2;15984.57;;Idle;;20;;10;;;7;Go Home;TRUE;TRUE;TRUE;FALSE;FALSE;FALSE;FALSE;FALSE;FALSE;FALSE;FALSE;FALSE;411.458.472.517.014;249.153.077.241.714;5.1;;1640.4;TRUE;1;1;FALSE;FALSE;FALSE;FALSE;;TRUE;FALSE;FALSE;Course Lock;820.2;296.2;22.9;6;SE;NW;2.68;2.9;Calm;TRUE;FALSE;Android;4.0.0;djiaircraft;1581F6GKB235T004;1W8DJCH00159E1;4LGZL5D007002W;6JYPL4FDA0026Q;364.7;0.1;406.8;3.982.647;7.605.596;21;0;djiaircraft;1581F6GKB235T004;1W8DJCH00159E1;4LGZL5D007002W;6JYPL4FDA0026Q;DJI Pilot;Android;4.0.0;082508BD-3795-F845-5409-048D259E487A;1581F6GKB235T004015Y;1W8DJCH00159E1;;4LGZL5D007002W;1W8DJCH00159E1;6JYPL4FDA0026Q;411.458.821.666.667;24.915.302;114.1;;
11/13/2025;3:29:00.04 PM;2m 24.8s;144.8;411.458.341.810.775;249.153.142.541.976;407.1;407.4;37.0;635;32.9;0.223694;0.447388;0;0.223694;-0.223694;0;0;0;-0.5;0.3;168.8;168.8;263.8;P-GPS (Brake);Other;;26;5;TRUE;;Matrice 350 RTK;FALSE;FALSE;;Smart;RC;FALSE;TRUE;FALSE;;;TRUE;;FALSE;FALSE;FALSE;FALSE;FALSE;FALSE;FALSE;FALSE;FALSE;FALSE;0;Follow Yaw;-9.7;0;-95.8;264.2;FALSE;FALSE;FALSE;FALSE;TRUE;FALSE;;TRUE;Normal;100;100;1024;1024;1024;1024;N;FALSE;FALSE;FALSE;FALSE;FALSE;0;FALSE;FALSE;FALSE;FALSE;92;91;48.764;48.794;5581;5557;6067;6061;48.764;48.794;TRUE;4.068;4.068;4.068;4.068;4.068;4.068;4.068;4.068;4.068;4.068;4.068;4.068;;FALSE;FALSE;TRUE;4.066;4.066;4.066;4.066;4.066;4.066;4.066;4.066;4.066;4.066;4.066;4.066;;FALSE;FALSE;7.986;8.046;79.1;82.2;78.2;81.3;82.2;82.2;2517;125;41;14;8;119878.5;15983.81;;Idle;;20;;10;;;7;Go Home;TRUE;TRUE;TRUE;FALSE;FALSE;FALSE;FALSE;FALSE;FALSE;FALSE;FALSE;FALSE;411.458.472.517.014;249.153.077.241.714;5.0;;1640.4;TRUE;1;1;FALSE;FALSE;FALSE;FALSE;;TRUE;FALSE;FALSE;Course Lock;820.2;296.2;22.9;6;SE;NW;2.68;2.9;Calm;TRUE;FALSE;Android;4.0.0;djiaircraft;1581F6GKB235T004;1W8DJCH00159E1;4LGZL5D007002W;6JYPL4FDA0026Q;364.7;0.1;406.8;3.982.647;7.605.596;21;0;djiaircraft;1581F6GKB235T004;1W8DJCH00159E1;4LGZL5D007002W;6JYPL4FDA0026Q;DJI Pilot;Android;4.0.0;082508BD-3795-F845-5409-048D259E487A;1581F6GKB235T004015Y;1W8DJCH00159E1;;4LGZL5D007002W;1W8DJCH00159E1;6JYPL4FDA0026Q;411.458.833.333.333;249.153.016.666.667;114.3;;
11/13/2025;3:29:06.38 PM;2m 31.1s;151.1;411.458.344.295.249;249.153.135.084.713;407.1;407.4;37.0;635;34.4;0.223694;0.447388;0;0.223694;-0.223694;0;0;0;-0.4;0.2;168.9;168.9;107.5;P-GPS (Brake);Other;;26;5;TRUE;;Matrice 350 RTK;FALSE;FALSE;;Smart;RC;FALSE;TRUE;FALSE;;;TRUE;;FALSE;FALSE;FALSE;FALSE;FALSE;FALSE;FALSE;FALSE;FALSE;FALSE;0;Follow Yaw;-12.1;0;-96.4;263.6;FALSE;FALSE;FALSE;FALSE;TRUE;FALSE;;TRUE;Normal;100;100;1024;1024;1024;1024;N;FALSE;FALSE;FALSE;FALSE;FALSE;0;FALSE;FALSE;FALSE;FALSE;92;91;48.762;48.775;11108;5541;12134;6063;48.762;48.775;TRUE;4.065;4.065;4.065;4.065;4.065;4.065;4.065;4.065;4.065;4.065;4.065;4.065;;FALSE;FALSE;TRUE;4.065;4.065;4.065;4.065;4.065;4.065;4.065;4.065;4.065;4.065;4.065;4.065;;FALSE;FALSE;15.986;8.015;82.2;82.2;78.2;81.3;82.2;82.2;2510;125;41;14;8;119865.5;15982.07;;Idle;;20;;10;;;7;Go Home;TRUE;TRUE;TRUE;FALSE;FALSE;FALSE;FALSE;FALSE;FALSE;FALSE;FALSE;FALSE;411.458.472.517.014;249.153.077.241.714;4.9;;1640.4;TRUE;1;1;FALSE;FALSE;FALSE;FALSE;;TRUE;FALSE;FALSE;Course Lock;820.2;296.2;22.9;6;SE;NW;2.68;2.9;Calm;TRUE;TRUE;Android;4.0.0;djiaircraft;1581F6GKB235T004;1W8DJCH00159E1;4LGZL5D007002W;6JYPL4FDA0026Q;364.7;0.1;406.8;3.982.647;7.605.596;21;0;djiaircraft;1581F6GKB235T004;1W8DJCH00159E1;4LGZL5D007002W;6JYPL4FDA0026Q;DJI Pilot;Android;4.0.0;082508BD-3795-F845-5409-048D259E487A;1581F6GKB235T004015Y;1W8DJCH00159E1;;4LGZL5D007002W;1W8DJCH00159E1;6JYPL4FDA0026Q;411.458.808.333.333;249.153.058.333.333;114.1;;
11/13/2025;3:29:07.04 PM;2m 31.8s;151.8;411.458.345.422.238;249.153.133.107.694;407.4;407.4;37.0;636;34.6;0.223694;0.447388;0;0.223694;-0.223694;0;0;0;-0.5;0.3;168.8;168.8;273.6;P-GPS (Brake);Other;;26;5;TRUE;;Matrice 350 RTK;FALSE;FALSE;;Smart;RC;FALSE;TRUE;FALSE;;;TRUE;;FALSE;FALSE;FALSE;FALSE;FALSE;FALSE;FALSE;FALSE;FALSE;FALSE;0;Follow Yaw;-12.1;0;-96.4;263.6;FALSE;FALSE;FALSE;FALSE;TRUE;FALSE;;TRUE;Normal;100;100;1024;1024;1024;1024;N;FALSE;FALSE;FALSE;FALSE;FALSE;0;FALSE;FALSE;FALSE;FALSE;91;91;48.739;48.765;5563;5527;6067;6067;48.739;48.765;TRUE;4.063;4.063;4.063;4.063;4.063;4.063;4.063;4.063;4.063;4.063;4.063;4.063;;FALSE;FALSE;TRUE;4.064;4.064;4.064;4.064;4.064;4.064;4.064;4.064;4.064;4.064;4.064;4.064;;FALSE;FALSE;8;8.046;79.1;82.2;78.2;81.3;82.2;82.2;2509;125;41;14;8;119852.8;15980.38;;Idle;;20;;10;;;7;Go Home;TRUE;TRUE;TRUE;FALSE;FALSE;FALSE;FALSE;FALSE;FALSE;FALSE;FALSE;FALSE;411.458.472.517.014;249.153.077.241.714;4.8;;1640.4;TRUE;1;1;FALSE;FALSE;FALSE;FALSE;;TRUE;FALSE;FALSE;Course Lock;820.2;296.2;22.9;6;SE;NW;2.68;2.9;Calm;TRUE;FALSE;Android;4.0.0;djiaircraft;1581F6GKB235T004;1W8DJCH00159E1;4LGZL5D007002W;6JYPL4FDA0026Q;364.7;0.1;406.8;3.982.647;7.605.596;21;0;djiaircraft;1581F6GKB235T004;1W8DJCH00159E1;4LGZL5D007002W;6JYPL4FDA0026Q;DJI Pilot;Android;4.0.0;082508BD-3795-F845-5409-048D259E487A;1581F6GKB235T004015Y;1W8DJCH00159E1;;4LGZL5D007002W;1W8DJCH00159E1;6JYPL4FDA0026Q;411.458.808.333.333;249.153.058.333.333;114.1;;
11/13/2025;3:29:12.64 PM;2m 37.4s;157.4;411.458.347.841.852;249.153.138.832.453;407.4;407.4;37.0;636;36.1;0.223694;0.447388;0;0.223694;-0.223694;0;0;0;-0.4;0.5;168.6;168.6;291.7;P-GPS (Brake);Other;;26;5;TRUE;;Matrice 350 RTK;FALSE;FALSE;;Smart;RC;FALSE;TRUE;FALSE;;;TRUE;;FALSE;FALSE;FALSE;FALSE;FALSE;FALSE;FALSE;FALSE;FALSE;FALSE;0;Follow Yaw;-15.4;0;-97.5;262.5;FALSE;FALSE;FALSE;FALSE;TRUE;FALSE;;TRUE;Normal;100;100;1024;1024;1024;1024;N;FALSE;FALSE;FALSE;FALSE;FALSE;0;FALSE;FALSE;FALSE;FALSE;91;90;48.704;48.727;5545;5508;6067;6067;48.704;48.727;TRUE;4.059;4.059;4.059;4.059;4.059;4.059;4.059;4.059;4.059;4.059;4.059;4.059;;FALSE;FALSE;TRUE;4.061;4.061;4.061;4.061;4.061;4.061;4.061;4.061;4.061;4.061;4.061;4.061;;FALSE;FALSE;8;8.076;79.3;82.2;78.2;81.3;82.2;82.2;2502;125;41;14;8;119982.5;15997.67;;Idle;;20;;10;;;7;Go Home;TRUE;TRUE;TRUE;FALSE;FALSE;FALSE;FALSE;FALSE;FALSE;FALSE;FALSE;FALSE;411.458.472.517.014;249.153.077.241.714;4.8;;1640.4;TRUE;1;1;FALSE;FALSE;FALSE;FALSE;;TRUE;FALSE;FALSE;Course Lock;820.2;296.2;22.9;6;SE;NW;2.68;2.9;Calm;TRUE;FALSE;Android;4.0.0;djiaircraft;1581F6GKB235T004;1W8DJCH00159E1;4LGZL5D007002W;6JYPL4FDA0026Q;364.7;0.1;406.8;3.982.647;7.605.596;21;0;djiaircraft;1581F6GKB235T004;1W8DJCH00159E1;4LGZL5D007002W;6JYPL4FDA0026Q;DJI Pilot;Android;4.0.0;082508BD-3795-F845-5409-048D259E487A;1581F6GKB235T004015Y;1W8DJCH00159E1;;4LGZL5D007002W;1W8DJCH00159E1;6JYPL4FDA0026Q;411.458.798.333.333;24.915.307;114.2;;
11/13/2025;3:29:13.14 PM;2m 37.9s;157.9;411.458.348.687.993;249.153.139.026.705;407.4;407.4;37.0;636;36.2;0.223694;0.447388;0;0.223694;-0.223694;0;0;0;-0.6;0.5;168.6;168.6;145.2;P-GPS (Brake);Other;;26;5;TRUE;;Matrice 350 RTK;FALSE;FALSE;;Smart;RC;FALSE;TRUE;FALSE;;;TRUE;;FALSE;FALSE;FALSE;FALSE;FALSE;FALSE;FALSE;FALSE;FALSE;FALSE;0;Follow Yaw;-15.4;0;-97.5;262.5;FALSE;FALSE;FALSE;FALSE;TRUE;FALSE;;TRUE;Normal;100;100;1024;1024;1024;1024;N;FALSE;FALSE;FALSE;FALSE;FALSE;0;FALSE;FALSE;FALSE;FALSE;91;90;48.704;48.727;5545;5508;6067;6067;48.704;48.727;TRUE;4.059;4.059;4.059;4.059;4.059;4.059;4.059;4.059;4.059;4.059;4.059;4.059;;FALSE;FALSE;TRUE;4.061;4.061;4.061;4.061;4.061;4.061;4.061;4.061;4.061;4.061;4.061;4.061;;FALSE;FALSE;8;8.076;79.3;82.2;78.2;81.3;82.2;82.2;2502;125;41;14;8;119982.5;15997.67;;Idle;;20;;10;;;7;Go Home;TRUE;TRUE;TRUE;FALSE;FALSE;FALSE;FALSE;FALSE;FALSE;FALSE;FALSE;FALSE;411.458.472.517.014;249.153.077.241.714;4.8;;1640.4;TRUE;1;1;FALSE;FALSE;FALSE;FALSE;;TRUE;FALSE;FALSE;Course Lock;820.2;296.2;22.9;6;E;W;2.68;2.9;Calm;FALSE;TRUE;Android;4.0.0;djiaircraft;1581F6GKB235T004;1W8DJCH00159E1;4LGZL5D007002W;6JYPL4FDA0026Q;364.7;0.1;406.8;3.982.647;7.605.596;21;0;djiaircraft;1581F6GKB235T004;1W8DJCH00159E1;4LGZL5D007002W;6JYPL4FDA0026Q;DJI Pilot;Android;4.0.0;082508BD-3795-F845-5409-048D259E487A;1581F6GKB235T004015Y;1W8DJCH00159E1;;4LGZL5D007002W;1W8DJCH00159E1;6JYPL4FDA0026Q;411.458.798.333.333;24.915.307;114.2;;
11/13/2025;3:29:14.14 PM;2m 38.9s;158.9;411.458.348.954.095;249.153.141.170.986;407.4;407.4;37.0;636;36.5;0.447388;0.447388;0;0.223694;-0.447388;0;0;0;-0.4;0.3;168.7;168.7;98.7;P-GPS (Brake);Other;;26;5;TRUE;;Matrice 350 RTK;FALSE;FALSE;;Smart;RC;FALSE;TRUE;FALSE;;;TRUE;;FALSE;FALSE;FALSE;FALSE;FALSE;FALSE;FALSE;FALSE;FALSE;FALSE;0;Follow Yaw;-15.4;0;-97.5;262.5;FALSE;FALSE;FALSE;FALSE;TRUE;FALSE;;TRUE;Normal;100;100;1024;1024;1024;1024;N;FALSE;FALSE;FALSE;FALSE;FALSE;0;FALSE;FALSE;FALSE;FALSE;91;90;48.73;48.724;11053;5508;12134;6067;48.73;48.724;TRUE;4.06;4.06;4.06;4.06;4.06;4.06;4.06;4.06;4.06;4.06;4.06;4.06;;FALSE;FALSE;TRUE;4.06;4.06;4.06;4.06;4.06;4.06;4.06;4.06;4.06;4.06;4.06;4.06;;FALSE;FALSE;16.002;8.076;82.2;82.2;78.2;81.3;82.2;82.2;2500;125;41;14;8;120031.4;16004.19;;Idle;;20;;10;;;7;Go Home;TRUE;TRUE;TRUE;FALSE;FALSE;FALSE;FALSE;FALSE;FALSE;FALSE;FALSE;FALSE;411.458.472.517.014;249.153.077.241.714;4.8;;1640.4;TRUE;1;1;FALSE;FALSE;FALSE;FALSE;;TRUE;FALSE;FALSE;Course Lock;820.2;296.2;22.9;6;E;W;2.68;2.9;Calm;FALSE;TRUE;Android;4.0.0;djiaircraft;1581F6GKB235T004;1W8DJCH00159E1;4LGZL5D007002W;6JYPL4FDA0026Q;364.7;0.1;406.8;3.982.647;7.605.596;21;0;djiaircraft;1581F6GKB235T004;1W8DJCH00159E1;4LGZL5D007002W;6JYPL4FDA0026Q;DJI Pilot;Android;4.0.0;082508BD-3795-F845-5409-048D259E487A;1581F6GKB235T004015Y;1W8DJCH00159E1;;4LGZL5D007002W;1W8DJCH00159E1;6JYPL4FDA0026Q;411.458.791.666.667;249.153.078.333.333;114;;
11/13/2025;3:29:18.84 PM;2m 43.6s;163.6;411.458.346.686.048;249.153.149.830.613;407.4;407.4;37.0;636;37.6;0.447388;0.447388;0;0.223694;-0.447388;0;0;0;-0.5;0.6;168.7;168.7;251.0;P-GPS (Brake);Other;;26;5;TRUE;;Matrice 350 RTK;FALSE;FALSE;;Smart;RC;FALSE;TRUE;FALSE;;;TRUE;;FALSE;FALSE;FALSE;FALSE;FALSE;FALSE;FALSE;FALSE;FALSE;FALSE;0;Follow Yaw;-18.6;0;-98.4;261.6;FALSE;FALSE;FALSE;FALSE;TRUE;FALSE;;TRUE;Normal;100;100;1024;1024;1024;1024;N;FALSE;FALSE;FALSE;FALSE;FALSE;0;FALSE;FALSE;FALSE;FALSE;91;90;48.665;48.694;5527;5508;6067;6067;48.665;48.694;TRUE;4.053;4.053;4.053;4.053;4.053;4.053;4.053;4.053;4.053;4.053;4.053;4.053;;FALSE;FALSE;TRUE;4.058;4.058;4.058;4.058;4.058;4.058;4.058;4.058;4.058;4.058;4.058;4.058;;FALSE;FALSE;8.092;8.092;79.3;82.2;78.2;81.3;82.2;82.2;2490;125;41;14;8;120234.7;16031.29;;Idle;;20;;10;;;7;Go Home;TRUE;TRUE;TRUE;FALSE;FALSE;FALSE;FALSE;FALSE;FALSE;FALSE;FALSE;FALSE;411.458.472.517.014;249.153.077.241.714;5.0;;1640.4;TRUE;1;1;FALSE;FALSE;FALSE;FALSE;;TRUE;FALSE;FALSE;Course Lock;820.2;296.2;22.9;6;E;W;2.46;2.9;Calm;FALSE;FALSE;Android;4.0.0;djiaircraft;1581F6GKB235T004;1W8DJCH00159E1;4LGZL5D007002W;6JYPL4FDA0026Q;364.7;0.1;406.8;3.982.647;7.605.596;21;0;djiaircraft;1581F6GKB235T004;1W8DJCH00159E1;4LGZL5D007002W;6JYPL4FDA0026Q;DJI Pilot;Android;4.0.0;082508BD-3795-F845-5409-048D259E487A;1581F6GKB235T004015Y;1W8DJCH00159E1;;4LGZL5D007002W;1W8DJCH00159E1;6JYPL4FDA0026Q;411.458.778.333.333;249.153.088.333.333;113.8;;
11/13/2025;3:29:19.13 PM;2m 43.9s;163.9;41.145.834.668.935;249.153.150.019.234;407.4;407.4;37.0;636;37.6;0.223694;0.447388;0;0.223694;-0.223694;0;0;0;-0.3;0.4;168.7;168.7;76.7;P-GPS (Brake);Other;;26;5;TRUE;;Matrice 350 RTK;FALSE;FALSE;;Smart;RC;FALSE;TRUE;FALSE;;;TRUE;;FALSE;FALSE;FALSE;FALSE;FALSE;FALSE;FALSE;FALSE;FALSE;FALSE;0;Follow Yaw;-18.6;0;-98.4;261.6;FALSE;FALSE;FALSE;FALSE;TRUE;FALSE;;TRUE;Normal;100;100;1024;1024;1024;1024;N;FALSE;FALSE;FALSE;FALSE;FALSE;0;FALSE;FALSE;FALSE;FALSE;91;90;48.665;48.694;5527;5508;6067;6067;48.665;48.694;TRUE;4.053;4.053;4.053;4.053;4.053;4.053;4.053;4.053;4.053;4.053;4.053;4.053;;FALSE;FALSE;TRUE;4.058;4.058;4.058;4.058;4.058;4.058;4.058;4.058;4.058;4.058;4.058;4.058;;FALSE;FALSE;8.092;8.092;79.3;82.2;78.2;81.3;82.2;82.2;2490;125;41;14;8;120234.7;16031.29;;Idle;;20;;10;;;7;Go Home;TRUE;TRUE;TRUE;FALSE;FALSE;FALSE;FALSE;FALSE;FALSE;FALSE;FALSE;FALSE;411.458.472.517.014;249.153.077.241.714;5.0;;1640.4;TRUE;1;1;FALSE;FALSE;FALSE;FALSE;;TRUE;FALSE;FALSE;Course Lock;820.2;296.2;22.9;6;E;W;2.46;2.9;Calm;FALSE;TRUE;Android;4.0.0;djiaircraft;1581F6GKB235T004;1W8DJCH00159E1;4LGZL5D007002W;6JYPL4FDA0026Q;364.7;0.1;406.8;3.982.647;7.605.596;21;0;djiaircraft;1581F6GKB235T004;1W8DJCH00159E1;4LGZL5D007002W;6JYPL4FDA0026Q;DJI Pilot;Android;4.0.0;082508BD-3795-F845-5409-048D259E487A;1581F6GKB235T004015Y;1W8DJCH00159E1;;4LGZL5D007002W;1W8DJCH00159E1;6JYPL4FDA0026Q;411.458.778.333.333;249.153.088.333.333;113.8;;
11/13/2025;3:29:20.15 PM;2m 44.9s;164.9;411.458.345.264.532;249.153.150.808.088;407.4;407.4;37.0;636;37.8;0.223694;0.447388;0;0.223694;-0.223694;0;0;0;-0.5;0.5;168.7;168.7;42.5;P-GPS (Brake);Other;;26;5;TRUE;;Matrice 350 RTK;FALSE;FALSE;;Smart;RC;FALSE;TRUE;FALSE;;;TRUE;;FALSE;FALSE;FALSE;FALSE;FALSE;FALSE;FALSE;FALSE;FALSE;FALSE;0;Follow Yaw;-18.6;0;-98.4;261.6;FALSE;FALSE;FALSE;FALSE;TRUE;FALSE;;TRUE;Normal;100;100;1024;1024;1024;1024;N;FALSE;FALSE;FALSE;FALSE;FALSE;0;FALSE;FALSE;FALSE;FALSE;91;90;48.686;48.693;11017;5490;12134;6067;48.686;48.693;TRUE;4.057;4.057;4.057;4.057;4.057;4.057;4.057;4.057;4.057;4.057;4.057;4.057;;FALSE;FALSE;TRUE;4.058;4.058;4.058;4.058;4.058;4.058;4.058;4.058;4.058;4.058;4.058;4.058;;FALSE;FALSE;16.274;8.138;82.2;82.2;78.2;81.3;82.2;82.2;2488;125;41;14;8;120370.1;16049.35;;Idle;;20;;10;;;7;Go Home;TRUE;TRUE;TRUE;FALSE;FALSE;FALSE;FALSE;FALSE;FALSE;FALSE;FALSE;FALSE;411.458.472.517.014;249.153.077.241.714;5.0;;1640.4;TRUE;1;1;FALSE;FALSE;FALSE;FALSE;;TRUE;FALSE;FALSE;Course Lock;820.2;296.2;22.9;6;E;W;2.46;2.9;Calm;FALSE;TRUE;Android;4.0.0;djiaircraft;1581F6GKB235T004;1W8DJCH00159E1;4LGZL5D007002W;6JYPL4FDA0026Q;364.7;0.1;406.8;3.982.647;7.605.596;21;0;djiaircraft;1581F6GKB235T004;1W8DJCH00159E1;4LGZL5D007002W;6JYPL4FDA0026Q;DJI Pilot;Android;4.0.0;082508BD-3795-F845-5409-048D259E487A;1581F6GKB235T004015Y;1W8DJCH00159E1;;4LGZL5D007002W;1W8DJCH00159E1;6JYPL4FDA0026Q;411.458.775;2.491.531;114;;
11/13/2025;3:29:25.14 PM;2m 49.9s;169.9;411.458.341.871.246;249.153.151.605.203;407.4;407.4;37.0;636;39.1;0.447388;0.447388;0;0.223694;-0.447388;0;0;0;-0.4;0.2;168.7;168.7;82.6;P-GPS (Brake);Other;;26;5;TRUE;;Matrice 350 RTK;FALSE;FALSE;;Smart;RC;FALSE;TRUE;FALSE;;;TRUE;;FALSE;FALSE;FALSE;FALSE;FALSE;FALSE;FALSE;FALSE;FALSE;FALSE;0;Follow Yaw;-23.3;0;-99.4;260.6;FALSE;FALSE;FALSE;FALSE;TRUE;FALSE;;TRUE;Normal;100;100;1024;1024;1024;1024;N;FALSE;FALSE;FALSE;FALSE;FALSE;0;FALSE;FALSE;FALSE;FALSE;90;90;48.641;48.665;5508;5472;6067;6067;48.641;48.665;TRUE;4.055;4.055;4.055;4.055;4.055;4.055;4.055;4.055;4.055;4.055;4.055;4.055;;FALSE;FALSE;TRUE;4.055;4.055;4.055;4.055;4.055;4.055;4.055;4.055;4.055;4.055;4.055;4.055;;FALSE;FALSE;8.03;8.046;79.3;82.2;78.2;81.3;82.2;82.2;2473;125;41;14;8;121184.6;16157.95;;Idle;;20;;10;;;7;Go Home;TRUE;TRUE;TRUE;FALSE;FALSE;FALSE;FALSE;FALSE;FALSE;FALSE;FALSE;FALSE;411.458.472.517.014;249.153.077.241.714;5.1;;1640.4;TRUE;1;1;FALSE;FALSE;FALSE;FALSE;;TRUE;FALSE;FALSE;Course Lock;820.2;296.2;22.9;6;E;W;2.46;2.9;Calm;FALSE;TRUE;Android;4.0.0;djiaircraft;1581F6GKB235T004;1W8DJCH00159E1;4LGZL5D007002W;6JYPL4FDA0026Q;364.7;0.1;406.8;3.982.647;7.605.596;21;0;djiaircraft;1581F6GKB235T004;1W8DJCH00159E1;4LGZL5D007002W;6JYPL4FDA0026Q;DJI Pilot;Android;4.0.0;082508BD-3795-F845-5409-048D259E487A;1581F6GKB235T004015Y;1W8DJCH00159E1;;4LGZL5D007002W;1W8DJCH00159E1;6JYPL4FDA0026Q;411.458.773.333.333;249.153.095;113.7;;
11/13/2025;3:29:26.14 PM;2m 50.9s;170.9;411.458.342.273.249;249.153.152.114.745;407.4;407.4;37.0;636;39.3;0.223694;0.447388;0;0.223694;-0.223694;0;0;0;-0.3;0.3;168.6;168.6;74.5;P-GPS (Brake);Other;;26;5;TRUE;;Matrice 350 RTK;FALSE;FALSE;;Smart;RC;FALSE;TRUE;FALSE;;;TRUE;;FALSE;FALSE;FALSE;FALSE;FALSE;FALSE;FALSE;FALSE;FALSE;FALSE;0;Follow Yaw;-23.3;0;-99.4;260.6;FALSE;FALSE;FALSE;FALSE;TRUE;FALSE;;TRUE;Normal;100;100;1024;1024;1024;1024;N;FALSE;FALSE;FALSE;FALSE;FALSE;0;FALSE;FALSE;FALSE;FALSE;90;90;48.664;48.665;10980;5472;12134;6067;48.664;48.665;TRUE;4.055;4.055;4.055;4.055;4.055;4.055;4.055;4.055;4.055;4.055;4.055;4.055;;FALSE;FALSE;TRUE;4.055;4.055;4.055;4.055;4.055;4.055;4.055;4.055;4.055;4.055;4.055;4.055;;FALSE;FALSE;16.108;8.046;82.2;82.2;78.2;81.3;82.2;82.2;2470;125;41;14;8;121162.7;16155.02;;Idle;;20;;10;;;7;Go Home;TRUE;TRUE;TRUE;FALSE;FALSE;FALSE;FALSE;FALSE;FALSE;FALSE;FALSE;FALSE;411.458.472.517.014;249.153.077.241.714;5.1;;1640.4;TRUE;1;1;FALSE;FALSE;FALSE;FALSE;;TRUE;FALSE;FALSE;Course Lock;820.2;296.2;22.9;6;E;W;2.46;2.9;Calm;FALSE;TRUE;Android;4.0.0;djiaircraft;1581F6GKB235T004;1W8DJCH00159E1;4LGZL5D007002W;6JYPL4FDA0026Q;364.7;0.1;406.8;3.982.647;7.605.596;21;0;djiaircraft;1581F6GKB235T004;1W8DJCH00159E1;4LGZL5D007002W;6JYPL4FDA0026Q;DJI Pilot;Android;4.0.0;082508BD-3795-F845-5409-048D259E487A;1581F6GKB235T004015Y;1W8DJCH00159E1;;4LGZL5D007002W;1W8DJCH00159E1;6JYPL4FDA0026Q;411.458.776.666.667;24.915.309;113.3;;
11/13/2025;3:29:37.94 PM;3m 2.7s;182.7;41.145.835.105.096;24.915.315.213.166;407.4;407.4;37.0;636;42.2;0.223694;0.447388;0;0.223694;-0.223694;0;0;0;-0.6;0.2;168.6;168.6;296.2;P-GPS (Brake);Other;;26;5;TRUE;;Matrice 350 RTK;FALSE;FALSE;;Smart;RC;FALSE;TRUE;FALSE;;;TRUE;;FALSE;FALSE;FALSE;FALSE;FALSE;FALSE;FALSE;FALSE;FALSE;FALSE;0;Follow Yaw;-35.7;0;-103.2;256.8;FALSE;FALSE;FALSE;FALSE;TRUE;FALSE;;TRUE;Normal;100;100;1024;1024;1024;1024;N;FALSE;FALSE;FALSE;FALSE;FALSE;0;FALSE;FALSE;FALSE;FALSE;90;89;48.592;48.59;10908;5436;12134;6067;48.592;48.59;TRUE;4.05;4.05;4.05;4.05;4.05;4.05;4.05;4.05;4.05;4.05;4.05;4.05;;FALSE;FALSE;TRUE;4.049;4.049;4.049;4.049;4.049;4.049;4.049;4.049;4.049;4.049;4.049;4.049;;FALSE;FALSE;16.214;8.138;82.4;82.4;78.2;81.3;82.4;82.4;2448;125;41;14;8;120908.4;16121.12;;Idle;;20;;10;;;7;Go Home;TRUE;TRUE;TRUE;FALSE;FALSE;FALSE;FALSE;FALSE;FALSE;FALSE;FALSE;FALSE;411.458.472.517.014;249.153.077.241.714;4.8;;1640.4;TRUE;1;1;FALSE;FALSE;FALSE;FALSE;;TRUE;FALSE;FALSE;Course Lock;820.2;296.2;22.9;6;E;W;2.46;2.9;Calm;FALSE;FALSE;Android;4.0.0;djiaircraft;1581F6GKB235T004;1W8DJCH00159E1;4LGZL5D007002W;6JYPL4FDA0026Q;364.7;0.1;406.8;3.982.647;7.605.596;21;0;djiaircraft;1581F6GKB235T004;1W8DJCH00159E1;4LGZL5D007002W;6JYPL4FDA0026Q;DJI Pilot;Android;4.0.0;082508BD-3795-F845-5409-048D259E487A;1581F6GKB235T004015Y;1W8DJCH00159E1;;4LGZL5D007002W;1W8DJCH00159E1;6JYPL4FDA0026Q;411.458.766.666.667;249.153.151.666.667;114;;
11/13/2025;3:29:38.24 PM;3m 3.0s;183.0;411.458.351.159.793;249.153.151.397.136;407.4;407.4;37.0;636;42.3;0.223694;0.447388;0;0.223694;-0.223694;0;0;0;-0.7;0;168.6;168.6;269.1;P-GPS (Brake);Other;;26;5;TRUE;;Matrice 350 RTK;FALSE;FALSE;;Smart;RC;FALSE;TRUE;FALSE;;;TRUE;;FALSE;FALSE;FALSE;FALSE;FALSE;FALSE;FALSE;FALSE;FALSE;FALSE;0;Follow Yaw;-35.7;0;-103.2;256.8;FALSE;FALSE;FALSE;FALSE;TRUE;FALSE;;TRUE;Normal;100;100;1024;1024;1024;1024;N;FALSE;FALSE;FALSE;FALSE;FALSE;0;FALSE;FALSE;FALSE;FALSE;89;89;48.559;48.59;5454;5436;6067;6067;48.559;48.59;TRUE;4.05;4.05;4.05;4.05;4.05;4.05;4.05;4.05;4.05;4.05;4.05;4.05;;FALSE;FALSE;TRUE;4.049;4.049;4.049;4.049;4.049;4.049;4.049;4.049;4.049;4.049;4.049;4.049;;FALSE;FALSE;8.182;8.138;79.5;82.4;78.2;81.3;82.4;82.4;2448;125;41;14;8;120908.4;16121.12;;Idle;;20;;10;;;7;Go Home;TRUE;TRUE;TRUE;FALSE;FALSE;FALSE;FALSE;FALSE;FALSE;FALSE;FALSE;FALSE;411.458.472.517.014;249.153.077.241.714;4.8;;1640.4;TRUE;1;1;FALSE;FALSE;FALSE;FALSE;;TRUE;FALSE;FALSE;Course Lock;820.2;296.2;22.9;6;E;W;2.46;2.9;Calm;FALSE;FALSE;Android;4.0.0;djiaircraft;1581F6GKB235T004;1W8DJCH00159E1;4LGZL5D007002W;6JYPL4FDA0026Q;364.7;0.1;406.8;3.982.647;7.605.596;21;0;djiaircraft;1581F6GKB235T004;1W8DJCH00159E1;4LGZL5D007002W;6JYPL4FDA0026Q;DJI Pilot;Android;4.0.0;082508BD-3795-F845-5409-048D259E487A;1581F6GKB235T004015Y;1W8DJCH00159E1;;4LGZL5D007002W;1W8DJCH00159E1;6JYPL4FDA0026Q;411.458.766.666.667;249.153.151.666.667;114;;
11/13/2025;3:29:39.24 PM;3m 4.0s;184.0;411.458.351.658.095;249.153.151.448.536;407.4;407.4;37.0;636;42.5;0.223694;0.447388;0;0.223694;-0.223694;0;0;0;-0.6;0.1;168.7;168.7;259.2;P-GPS (Brake);Other;;26;5;TRUE;;Matrice 350 RTK;FALSE;FALSE;;Smart;RC;FALSE;TRUE;FALSE;;;TRUE;;FALSE;FALSE;FALSE;FALSE;FALSE;FALSE;FALSE;FALSE;FALSE;FALSE;0;Free;-36.2;0;-103.5;256.5;FALSE;FALSE;FALSE;FALSE;TRUE;FALSE;;TRUE;Normal;100;100;1024;1024;1024;1024;N;FALSE;FALSE;FALSE;FALSE;FALSE;0;FALSE;FALSE;FALSE;FALSE;90;89;48.585;48.59;10890;5436;12134;6067;48.585;48.59;TRUE;4.05;4.05;4.05;4.05;4.05;4.05;4.05;4.05;4.05;4.05;4.05;4.05;;FALSE;FALSE;TRUE;4.049;4.049;4.049;4.049;4.049;4.049;4.049;4.049;4.049;4.049;4.049;4.049;;FALSE;FALSE;16.214;8.138;82.4;82.4;78.2;81.3;82.4;82.4;2446;125;41;14;8;120994.9;16132.65;;Idle;;20;;10;;;7;Go Home;TRUE;TRUE;TRUE;FALSE;FALSE;FALSE;FALSE;FALSE;FALSE;FALSE;FALSE;FALSE;411.458.472.517.014;249.153.077.241.714;4.8;;1640.4;TRUE;1;1;FALSE;FALSE;FALSE;FALSE;;TRUE;FALSE;FALSE;Course Lock;820.2;296.2;22.9;6;E;W;2.46;2.9;Calm;FALSE;FALSE;Android;4.0.0;djiaircraft;1581F6GKB235T004;1W8DJCH00159E1;4LGZL5D007002W;6JYPL4FDA0026Q;364.7;0.1;406.8;3.982.647;7.605.596;21;0;djiaircraft;1581F6GKB235T004;1W8DJCH00159E1;4LGZL5D007002W;6JYPL4FDA0026Q;DJI Pilot;Android;4.0.0;082508BD-3795-F845-5409-048D259E487A;1581F6GKB235T004015Y;1W8DJCH00159E1;;4LGZL5D007002W;1W8DJCH00159E1;6JYPL4FDA0026Q;411.458.766.666.667;249.153.151.666.667;114;;
11/13/2025;3:29:45.27 PM;3m 10.0s;190.0;411.458.344.361.769;249.153.157.104.461;407.4;407.4;37.0;636;44.1;0.223694;0.447388;0;0.223694;-0.223694;0;0;0;-0.7;0.3;168.9;168.9;231.4;P-GPS (Brake);Other;;26;5;TRUE;;Matrice 350 RTK;FALSE;FALSE;;Smart;RC;FALSE;TRUE;FALSE;;;TRUE;;FALSE;FALSE;FALSE;FALSE;FALSE;FALSE;FALSE;FALSE;FALSE;FALSE;0;Follow Yaw;-46.1;0;-108.6;251.4;FALSE;FALSE;FALSE;FALSE;TRUE;FALSE;;TRUE;Normal;100;100;1024;1024;1024;1024;N;FALSE;FALSE;FALSE;FALSE;FALSE;0;FALSE;FALSE;FALSE;FALSE;89;89;48.556;48.56;10853;5417;12134;6067;48.556;48.56;TRUE;4.047;4.047;4.047;4.047;4.047;4.047;4.047;4.047;4.047;4.047;4.047;4.047;;FALSE;FALSE;TRUE;4.047;4.047;4.047;4.047;4.047;4.047;4.047;4.047;4.047;4.047;4.047;4.047;;FALSE;FALSE;16.168;8.092;82.4;82.4;78.2;81.3;82.4;82.4;2431;125;41;14;8;121565.9;16208.79;;Idle;;20;;10;;;7;Go Home;TRUE;TRUE;TRUE;FALSE;FALSE;FALSE;FALSE;FALSE;FALSE;FALSE;FALSE;FALSE;411.458.472.517.014;249.153.077.241.714;5.1;;1640.4;TRUE;1;1;FALSE;FALSE;FALSE;FALSE;;TRUE;FALSE;FALSE;Course Lock;820.2;296.2;22.9;6;SE;NW;2.68;2.9;Calm;TRUE;FALSE;Android;4.0.0;djiaircraft;1581F6GKB235T004;1W8DJCH00159E1;4LGZL5D007002W;6JYPL4FDA0026Q;364.7;0.1;406.8;3.982.647;7.605.596;21;0;djiaircraft;1581F6GKB235T004;1W8DJCH00159E1;4LGZL5D007002W;6JYPL4FDA0026Q;DJI Pilot;Android;4.0.0;082508BD-3795-F845-5409-048D259E487A;1581F6GKB235T004015Y;1W8DJCH00159E1;;4LGZL5D007002W;1W8DJCH00159E1;6JYPL4FDA0026Q;411.458.726.666.667;249.153.213.333.333;114.5;;
11/13/2025;3:29:45.37 PM;3m 10.1s;190.1;411.458.345.036.813;24.915.315.773.433;407.4;407.4;37.0;636;44.1;0.223694;0.447388;0;0.223694;-0.223694;0;0;0;-0.5;0.2;168.9;168.9;35.0;P-GPS (Brake);Other;;26;5;TRUE;;Matrice 350 RTK;FALSE;FALSE;;Smart;RC;FALSE;TRUE;FALSE;;;TRUE;;FALSE;FALSE;FALSE;FALSE;FALSE;FALSE;FALSE;FALSE;FALSE;FALSE;0;Follow Yaw;-46.1;0;-108.6;251.4;FALSE;FALSE;FALSE;FALSE;TRUE;FALSE;;TRUE;Normal;100;100;1024;1024;1024;1024;N;FALSE;FALSE;FALSE;FALSE;FALSE;0;FALSE;FALSE;FALSE;FALSE;89;89;48.556;48.56;10853;5417;12134;6067;48.556;48.56;TRUE;4.047;4.047;4.047;4.047;4.047;4.047;4.047;4.047;4.047;4.047;4.047;4.047;;FALSE;FALSE;TRUE;4.047;4.047;4.047;4.047;4.047;4.047;4.047;4.047;4.047;4.047;4.047;4.047;;FALSE;FALSE;16.168;8.092;82.4;82.4;78.2;81.3;82.4;82.4;2431;125;41;14;8;121565.9;16208.79;;Idle;;20;;10;;;7;Go Home;TRUE;TRUE;TRUE;FALSE;FALSE;FALSE;FALSE;FALSE;FALSE;FALSE;FALSE;FALSE;411.458.472.517.014;249.153.077.241.714;5.1;;1640.4;TRUE;1;1;FALSE;FALSE;FALSE;FALSE;;TRUE;FALSE;FALSE;Course Lock;820.2;296.2;22.9;6;SE;NW;2.68;2.9;Calm;TRUE;FALSE;Android;4.0.0;djiaircraft;1581F6GKB235T004;1W8DJCH00159E1;4LGZL5D007002W;6JYPL4FDA0026Q;364.7;0.1;406.8;3.982.647;7.605.596;21;0;djiaircraft;1581F6GKB235T004;1W8DJCH00159E1;4LGZL5D007002W;6JYPL4FDA0026Q;DJI Pilot;Android;4.0.0;082508BD-3795-F845-5409-048D259E487A;1581F6GKB235T004015Y;1W8DJCH00159E1;;4LGZL5D007002W;1W8DJCH00159E1;6JYPL4FDA0026Q;411.458.726.666.667;249.153.213.333.333;114.5;;
11/13/2025;3:29:46.24 PM;3m 11.0s;191.0;411.458.342.765.937;249.153.156.966.544;407.4;407.4;37.0;636;44.4;0.223694;0.447388;0;0.223694;-0.223694;0;0;0;-0.5;0.1;168.9;168.9;238.3;P-GPS (Brake);Other;;26;5;TRUE;;Matrice 350 RTK;FALSE;FALSE;;Smart;RC;FALSE;TRUE;FALSE;;;TRUE;;FALSE;FALSE;FALSE;FALSE;FALSE;FALSE;FALSE;FALSE;FALSE;FALSE;0;Follow Yaw;-46.1;0;-108.6;251.4;FALSE;FALSE;FALSE;FALSE;TRUE;FALSE;;TRUE;Normal;100;100;1024;1024;1024;1024;N;FALSE;FALSE;FALSE;FALSE;FALSE;0;FALSE;FALSE;FALSE;FALSE;89;89;48.534;48.553;5436;5417;6067;6067;48.534;48.553;TRUE;4.046;4.046;4.046;4.046;4.046;4.046;4.046;4.046;4.046;4.046;4.046;4.046;;FALSE;FALSE;TRUE;4.046;4.046;4.046;4.046;4.046;4.046;4.046;4.046;4.046;4.046;4.046;4.046;;FALSE;FALSE;8.076;8.062;79.5;82.4;78.2;81.3;82.4;82.4;2428;125;41;14;8;121559.9;16207.98;;Idle;;20;;10;;;7;Go Home;TRUE;TRUE;TRUE;FALSE;FALSE;FALSE;FALSE;FALSE;FALSE;FALSE;FALSE;FALSE;411.458.472.517.014;249.153.077.241.714;5.2;;1640.4;TRUE;1;1;FALSE;FALSE;FALSE;FALSE;;TRUE;FALSE;FALSE;Course Lock;820.2;296.2;22.9;6;SE;NW;2.68;2.9;Calm;TRUE;FALSE;Android;4.0.0;djiaircraft;1581F6GKB235T004;1W8DJCH00159E1;4LGZL5D007002W;6JYPL4FDA0026Q;364.7;0.1;406.8;3.982.647;7.605.596;21;0;djiaircraft;1581F6GKB235T004;1W8DJCH00159E1;4LGZL5D007002W;6JYPL4FDA0026Q;DJI Pilot;Android;4.0.0;082508BD-3795-F845-5409-048D259E487A;1581F6GKB235T004015Y;1W8DJCH00159E1;;4LGZL5D007002W;1W8DJCH00159E1;6JYPL4FDA0026Q;411.458.721.666.667;249.153.223.333.333;114.4;;
11/13/2025;3:29:51.04 PM;3m 15.8s;195.8;411.458.337.713.276;249.153.161.286.311;407.4;407.4;37.0;636;45.6;0.223694;0.447388;0;0.223694;-0.223694;0;0;0;-0.2;0.1;168.8;168.8;255.3;P-GPS (Brake);Other;;26;5;TRUE;;Matrice 350 RTK;FALSE;FALSE;;Smart;RC;FALSE;TRUE;FALSE;;;TRUE;;FALSE;FALSE;FALSE;FALSE;FALSE;FALSE;FALSE;FALSE;FALSE;FALSE;0;Follow Yaw;-58.5;0;-117.2;242.8;FALSE;FALSE;FALSE;FALSE;TRUE;FALSE;;TRUE;Normal;100;100;1024;1024;1024;1024;N;FALSE;FALSE;FALSE;FALSE;FALSE;0;FALSE;FALSE;FALSE;FALSE;89;89;48.506;48.523;5417;5399;6067;6067;48.506;48.523;TRUE;4.047;4.047;4.047;4.047;4.047;4.047;4.047;4.047;4.047;4.047;4.047;4.047;;FALSE;FALSE;TRUE;4.044;4.044;4.044;4.044;4.044;4.044;4.044;4.044;4.044;4.044;4.044;4.044;;FALSE;FALSE;8.06;8.046;79.5;82.4;78.2;81.3;82.4;82.4;2419;125;41;14;8;121133.3;16151.11;;Idle;;20;;10;;;7;Go Home;TRUE;TRUE;TRUE;FALSE;FALSE;FALSE;FALSE;FALSE;FALSE;FALSE;FALSE;FALSE;411.458.472.517.014;249.153.077.241.714;5.4;;1640.4;TRUE;1;1;FALSE;FALSE;FALSE;FALSE;;TRUE;FALSE;FALSE;Course Lock;820.2;296.2;22.9;6;E;W;2.68;2.9;Calm;FALSE;FALSE;Android;4.0.0;djiaircraft;1581F6GKB235T004;1W8DJCH00159E1;4LGZL5D007002W;6JYPL4FDA0026Q;364.7;0.1;406.8;3.982.647;7.605.596;21;0;djiaircraft;1581F6GKB235T004;1W8DJCH00159E1;4LGZL5D007002W;6JYPL4FDA0026Q;DJI Pilot;Android;4.0.0;082508BD-3795-F845-5409-048D259E487A;1581F6GKB235T004015Y;1W8DJCH00159E1;;4LGZL5D007002W;1W8DJCH00159E1;6JYPL4FDA0026Q;411.458.733.333.333;249.153.196.666.667;114.7;;
11/13/2025;3:29:51.24 PM;3m 16.0s;196.0;411.458.337.683.538;249.153.161.280.331;407.4;407.4;37.0;636;45.6;0.223694;0.447388;0;0.223694;-0.223694;0;0;0;-0.3;0.3;168.8;168.8;258.7;P-GPS (Brake);Other;;26;5;TRUE;;Matrice 350 RTK;FALSE;FALSE;;Smart;RC;FALSE;TRUE;FALSE;;;TRUE;;FALSE;FALSE;FALSE;FALSE;FALSE;FALSE;FALSE;FALSE;FALSE;FALSE;0;Follow Yaw;-58.5;0;-117.2;242.8;FALSE;FALSE;FALSE;FALSE;TRUE;FALSE;;TRUE;Normal;100;100;1024;1024;1024;1024;N;FALSE;FALSE;FALSE;FALSE;FALSE;0;FALSE;FALSE;FALSE;FALSE;89;89;48.527;48.523;10816;5399;12134;6067;48.527;48.523;TRUE;4.047;4.047;4.047;4.047;4.047;4.047;4.047;4.047;4.047;4.047;4.047;4.047;;FALSE;FALSE;TRUE;4.044;4.044;4.044;4.044;4.044;4.044;4.044;4.044;4.044;4.044;4.044;4.044;;FALSE;FALSE;16.122;8.046;82.4;82.4;78.2;81.3;82.4;82.4;2419;125;41;14;8;121133.3;16151.11;;Idle;;20;;10;;;7;Go Home;TRUE;TRUE;TRUE;FALSE;FALSE;FALSE;FALSE;FALSE;FALSE;FALSE;FALSE;FALSE;411.458.472.517.014;249.153.077.241.714;5.4;;1640.4;TRUE;1;1;FALSE;FALSE;FALSE;FALSE;;TRUE;FALSE;FALSE;Course Lock;820.2;296.2;22.9;6;E;W;2.68;2.9;Calm;FALSE;FALSE;Android;4.0.0;djiaircraft;1581F6GKB235T004;1W8DJCH00159E1;4LGZL5D007002W;6JYPL4FDA0026Q;364.7;0.1;406.8;3.982.647;7.605.596;21;0;djiaircraft;1581F6GKB235T004;1W8DJCH00159E1;4LGZL5D007002W;6JYPL4FDA0026Q;DJI Pilot;Android;4.0.0;082508BD-3795-F845-5409-048D259E487A;1581F6GKB235T004015Y;1W8DJCH00159E1;;4LGZL5D007002W;1W8DJCH00159E1;6JYPL4FDA0026Q;411.458.733.333.333;249.153.196.666.667;114.7;;
11/13/2025;3:29:52.24 PM;3m 17.0s;197.0;411.458.336.489.395;24.915.316.082.866;407.4;407.4;37.0;636;45.8;0.223694;0.447388;0;0.223694;-0.223694;0;0;0;-0.4;0.2;168.9;168.9;257.5;P-GPS (Brake);Other;;26;5;TRUE;;Matrice 350 RTK;FALSE;FALSE;;Smart;RC;FALSE;TRUE;FALSE;;;TRUE;;FALSE;FALSE;FALSE;FALSE;FALSE;FALSE;FALSE;FALSE;FALSE;FALSE;0;Free;-59.5;0;-118.2;241.8;FALSE;FALSE;FALSE;FALSE;TRUE;FALSE;;TRUE;Normal;100;100;1024;1024;1024;1024;N;FALSE;FALSE;FALSE;FALSE;FALSE;0;FALSE;FALSE;FALSE;FALSE;89;88;48.505;48.527;5417;5381;6067;6067;48.505;48.527;TRUE;4.041;4.041;4.041;4.041;4.041;4.041;4.041;4.041;4.041;4.041;4.041;4.041;;FALSE;FALSE;TRUE;4.044;4.044;4.044;4.044;4.044;4.044;4.044;4.044;4.044;4.044;4.044;4.044;;FALSE;FALSE;8.046;8.001;79.5;82.4;78.2;81.3;82.4;82.4;2418;125;41;14;8;121073.8;16143.18;;Idle;;20;;10;;;7;Go Home;TRUE;TRUE;TRUE;FALSE;FALSE;FALSE;FALSE;FALSE;FALSE;FALSE;FALSE;FALSE;411.458.472.517.014;249.153.077.241.714;5.4;;1640.4;TRUE;1;1;FALSE;FALSE;FALSE;FALSE;;TRUE;FALSE;FALSE;Course Lock;820.2;296.2;22.9;6;E;W;2.68;2.9;Calm;FALSE;FALSE;Android;4.0.0;djiaircraft;1581F6GKB235T004;1W8DJCH00159E1;4LGZL5D007002W;6JYPL4FDA0026Q;364.7;0.1;406.8;3.982.647;7.605.596;21;0;djiaircraft;1581F6GKB235T004;1W8DJCH00159E1;4LGZL5D007002W;6JYPL4FDA0026Q;DJI Pilot;Android;4.0.0;082508BD-3795-F845-5409-048D259E487A;1581F6GKB235T004015Y;1W8DJCH00159E1;;4LGZL5D007002W;1W8DJCH00159E1;6JYPL4FDA0026Q;411.458.733.333.333;24.915.319;114.9;;
11/13/2025;3:30:03.94 PM;3m 28.7s;208.7;41.145.834.563.001;24.915.314.745.722;407.4;407.4;37.0;636;48.8;0.223694;0.447388;0;0.223694;-0.223694;0;0;0;-0.5;0.2;168.6;168.6;96.5;P-GPS (Brake);Other;;26;5;TRUE;;Matrice 350 RTK;FALSE;FALSE;;Smart;RC;FALSE;TRUE;FALSE;;;TRUE;;FALSE;FALSE;FALSE;FALSE;FALSE;FALSE;FALSE;FALSE;FALSE;FALSE;0;Follow Yaw;-77.1;0;162.1;162.1;FALSE;FALSE;FALSE;FALSE;TRUE;FALSE;;TRUE;Normal;100;100;1024;1024;1024;1024;N;FALSE;FALSE;FALSE;FALSE;FALSE;0;FALSE;FALSE;FALSE;FALSE;88;88;48.43;48.464;5381;5345;6067;6067;48.43;48.464;TRUE;4.037;4.037;4.037;4.037;4.037;4.037;4.037;4.037;4.037;4.037;4.037;4.037;;FALSE;FALSE;TRUE;4.039;4.039;4.039;4.039;4.039;4.039;4.039;4.039;4.039;4.039;4.039;4.039;;FALSE;FALSE;8.106;8.032;79.7;82.4;78.2;81.3;82.4;82.4;2406;125;41;14;8;121019.0;16135.87;;Idle;;20;;10;;;7;Go Home;TRUE;TRUE;TRUE;FALSE;FALSE;FALSE;FALSE;FALSE;FALSE;FALSE;FALSE;FALSE;411.458.472.517.014;249.153.077.241.714;5.0;;1640.4;TRUE;1;1;FALSE;FALSE;FALSE;FALSE;;TRUE;FALSE;FALSE;Course Lock;820.2;296.2;22.9;6;E;W;2.68;2.9;Calm;FALSE;TRUE;Android;4.0.0;djiaircraft;1581F6GKB235T004;1W8DJCH00159E1;4LGZL5D007002W;6JYPL4FDA0026Q;364.7;0.1;406.8;3.982.647;7.605.596;21;0;djiaircraft;1581F6GKB235T004;1W8DJCH00159E1;4LGZL5D007002W;6JYPL4FDA0026Q;DJI Pilot;Android;4.0.0;082508BD-3795-F845-5409-048D259E487A;1581F6GKB235T004015Y;1W8DJCH00159E1;;4LGZL5D007002W;1W8DJCH00159E1;6JYPL4FDA0026Q;411.458.726.666.667;249.153.173.333.333;116;;
11/13/2025;3:30:04.34 PM;3m 29.1s;209.1;411.458.345.242.894;249.153.147.619.511;407.4;407.4;37.0;636;48.9;0.223694;0.447388;0;0.223694;-0.223694;0;0;0;-0.5;0.1;168.6;168.6;118.5;P-GPS (Brake);Other;;26;5;TRUE;;Matrice 350 RTK;FALSE;FALSE;;Smart;RC;FALSE;TRUE;FALSE;;;TRUE;;FALSE;FALSE;FALSE;FALSE;FALSE;FALSE;FALSE;FALSE;FALSE;FALSE;0;Follow Yaw;-77.1;0;162.1;162.1;FALSE;FALSE;FALSE;FALSE;TRUE;FALSE;;TRUE;Normal;100;100;1024;1024;1024;1024;N;FALSE;FALSE;FALSE;FALSE;FALSE;0;FALSE;FALSE;FALSE;FALSE;88;88;48.43;48.464;5381;5345;6067;6067;48.43;48.464;TRUE;4.037;4.037;4.037;4.037;4.037;4.037;4.037;4.037;4.037;4.037;4.037;4.037;;FALSE;FALSE;TRUE;4.039;4.039;4.039;4.039;4.039;4.039;4.039;4.039;4.039;4.039;4.039;4.039;;FALSE;FALSE;8.106;8.032;79.7;82.4;78.2;81.3;82.4;82.4;2406;125;41;14;8;121019.0;16135.87;;Idle;;20;;10;;;7;Go Home;TRUE;TRUE;TRUE;FALSE;FALSE;FALSE;FALSE;FALSE;FALSE;FALSE;FALSE;FALSE;411.458.472.517.014;249.153.077.241.714;5.0;;1640.4;TRUE;1;1;FALSE;FALSE;FALSE;FALSE;;TRUE;FALSE;FALSE;Course Lock;820.2;296.2;22.9;6;E;W;2.68;2.9;Calm;FALSE;TRUE;Android;4.0.0;djiaircraft;1581F6GKB235T004;1W8DJCH00159E1;4LGZL5D007002W;6JYPL4FDA0026Q;364.7;0.1;406.8;3.982.647;7.605.596;21;0;djiaircraft;1581F6GKB235T004;1W8DJCH00159E1;4LGZL5D007002W;6JYPL4FDA0026Q;DJI Pilot;Android;4.0.0;082508BD-3795-F845-5409-048D259E487A;1581F6GKB235T004015Y;1W8DJCH00159E1;;4LGZL5D007002W;1W8DJCH00159E1;6JYPL4FDA0026Q;411.458.726.666.667;249.153.173.333.333;116;;
11/13/2025;3:30:05.34 PM;3m 30.1s;210.1;41.145.834.751.271;249.153.146.647.554;407.4;407.4;37.0;636;49.1;0.223694;0.447388;0;0.223694;-0.223694;0;0;0;-0.4;0.2;168.6;168.6;116.2;P-GPS (Brake);Other;;26;5;TRUE;;Matrice 350 RTK;FALSE;FALSE;;Smart;RC;FALSE;TRUE;FALSE;;;TRUE;;FALSE;FALSE;FALSE;FALSE;FALSE;FALSE;FALSE;FALSE;FALSE;FALSE;0;Free;-77.1;0;161.5;161.5;FALSE;FALSE;FALSE;FALSE;TRUE;FALSE;;TRUE;Normal;100;100;1024;1024;1024;1024;N;FALSE;FALSE;FALSE;FALSE;FALSE;0;FALSE;FALSE;FALSE;FALSE;88;88;48.418;48.464;5381;5345;6067;6067;48.418;48.464;TRUE;4.038;4.038;4.038;4.038;4.038;4.038;4.038;4.038;4.038;4.038;4.038;4.038;;FALSE;FALSE;TRUE;4.039;4.039;4.039;4.039;4.039;4.039;4.039;4.039;4.039;4.039;4.039;4.039;;FALSE;FALSE;8.122;8.032;79.7;82.4;78.2;81.3;82.4;82.4;2404;125;41;14;8;121114.8;16148.64;;Idle;;20;;10;;;7;Go Home;TRUE;TRUE;TRUE;FALSE;FALSE;FALSE;FALSE;FALSE;FALSE;FALSE;FALSE;FALSE;411.458.472.517.014;249.153.077.241.714;4.9;;1640.4;TRUE;1;1;FALSE;FALSE;FALSE;FALSE;;TRUE;FALSE;FALSE;Course Lock;820.2;296.2;22.9;6;E;W;2.68;2.9;Calm;FALSE;TRUE;Android;4.0.0;djiaircraft;1581F6GKB235T004;1W8DJCH00159E1;4LGZL5D007002W;6JYPL4FDA0026Q;364.7;0.1;406.8;3.982.647;7.605.596;21;0;djiaircraft;1581F6GKB235T004;1W8DJCH00159E1;4LGZL5D007002W;6JYPL4FDA0026Q;DJI Pilot;Android;4.0.0;082508BD-3795-F845-5409-048D259E487A;1581F6GKB235T004015Y;1W8DJCH00159E1;;4LGZL5D007002W;1W8DJCH00159E1;6JYPL4FDA0026Q;411.458.726.666.667;249.153.173.333.333;116;;
11/13/2025;3:30:15.74 PM;3m 40.5s;220.5;411.458.345.187.996;249.153.140.791.824;407.1;407.4;37.0;635;51.8;0.223694;0.447388;0;0.223694;-0.223694;0;0;0;-0.4;0.2;169.1;169.1;131.5;P-GPS (Brake);Other;;26;5;TRUE;;Matrice 350 RTK;FALSE;FALSE;;Smart;RC;FALSE;TRUE;FALSE;;;TRUE;;FALSE;FALSE;FALSE;FALSE;FALSE;FALSE;FALSE;FALSE;FALSE;FALSE;0;Follow Yaw;-56.1;0;105.8;105.8;FALSE;FALSE;FALSE;FALSE;TRUE;FALSE;;TRUE;Normal;100;100;1024;1024;1024;1024;N;FALSE;FALSE;FALSE;FALSE;FALSE;0;FALSE;FALSE;FALSE;FALSE;88;87;48.368;48.399;5345;5308;6067;6067;48.368;48.399;TRUE;4.032;4.032;4.032;4.032;4.032;4.032;4.032;4.032;4.032;4.032;4.032;4.032;;FALSE;FALSE;TRUE;4.033;4.033;4.033;4.033;4.033;4.033;4.033;4.033;4.033;4.033;4.033;4.033;;FALSE;FALSE;8.136;8.032;79.8;82.4;78.2;81.3;82.4;82.4;2385;125;41;14;8;120860.4;16114.72;;Idle;;20;;10;;;7;Go Home;TRUE;TRUE;TRUE;FALSE;FALSE;FALSE;FALSE;FALSE;FALSE;FALSE;FALSE;FALSE;411.458.472.517.014;249.153.077.241.714;4.9;;1640.4;TRUE;1;1;FALSE;FALSE;FALSE;FALSE;;TRUE;FALSE;FALSE;Course Lock;820.2;296.2;22.9;6;E;W;2.68;2.9;Calm;FALSE;TRUE;Android;4.0.0;djiaircraft;1581F6GKB235T004;1W8DJCH00159E1;4LGZL5D007002W;6JYPL4FDA0026Q;364.7;0.1;406.8;3.982.647;7.605.596;21;0;djiaircraft;1581F6GKB235T004;1W8DJCH00159E1;4LGZL5D007002W;6JYPL4FDA0026Q;DJI Pilot;Android;4.0.0;082508BD-3795-F845-5409-048D259E487A;1581F6GKB235T004015Y;1W8DJCH00159E1;;4LGZL5D007002W;1W8DJCH00159E1;6JYPL4FDA0026Q;41.145.877;249.153.105;115.3;;
11/13/2025;3:30:16.44 PM;3m 41.2s;221.2;411.458.345.185.105;249.153.140.717.622;407.1;407.4;37.0;635;52.1;0.223694;0.447388;0;0.223694;-0.223694;0;0;0;-0.4;0.3;169.1;169.1;240.8;P-GPS (Brake);Other;;26;5;TRUE;;Matrice 350 RTK;FALSE;FALSE;;Smart;RC;FALSE;TRUE;FALSE;;;TRUE;;FALSE;FALSE;FALSE;FALSE;FALSE;FALSE;FALSE;FALSE;FALSE;FALSE;0;Follow Yaw;-56.1;0;105.8;105.8;FALSE;FALSE;FALSE;FALSE;TRUE;FALSE;;TRUE;Normal;100;100;1024;1024;1024;1024;N;FALSE;FALSE;FALSE;FALSE;FALSE;0;FALSE;FALSE;FALSE;FALSE;88;87;48.392;48.399;10653;5308;12134;6067;48.392;48.399;TRUE;4.032;4.032;4.032;4.032;4.032;4.032;4.032;4.032;4.032;4.032;4.032;4.032;;FALSE;FALSE;TRUE;4.033;4.033;4.033;4.033;4.033;4.033;4.033;4.033;4.033;4.033;4.033;4.033;;FALSE;FALSE;16.154;8.032;82.4;82.4;78.2;81.3;82.4;82.4;2385;125;41;14;8;120860.4;16114.72;;Idle;;20;;10;;;7;Go Home;TRUE;TRUE;TRUE;FALSE;FALSE;FALSE;FALSE;FALSE;FALSE;FALSE;FALSE;FALSE;411.458.472.517.014;249.153.077.241.714;4.9;;1640.4;TRUE;1;1;FALSE;FALSE;FALSE;FALSE;;TRUE;FALSE;FALSE;Course Lock;820.2;296.2;22.9;6;E;W;2.46;2.9;Calm;FALSE;FALSE;Android;4.0.0;djiaircraft;1581F6GKB235T004;1W8DJCH00159E1;4LGZL5D007002W;6JYPL4FDA0026Q;364.7;0.1;406.8;3.982.647;7.605.596;21;0;djiaircraft;1581F6GKB235T004;1W8DJCH00159E1;4LGZL5D007002W;6JYPL4FDA0026Q;DJI Pilot;Android;4.0.0;082508BD-3795-F845-5409-048D259E487A;1581F6GKB235T004015Y;1W8DJCH00159E1;;4LGZL5D007002W;1W8DJCH00159E1;6JYPL4FDA0026Q;41.145.877;249.153.105;115.3;;
11/13/2025;3:30:25.84 PM;3m 50.6s;230.6;411.458.346.250.141;249.153.138.709.809;407.1;407.4;37.0;635;54.2;0.223694;0.447388;0;0.223694;-0.223694;0;0;0;-0.5;0.4;169;169;274.8;P-GPS (Brake);Other;;26;5;TRUE;;Matrice 350 RTK;FALSE;FALSE;;Smart;RC;FALSE;TRUE;FALSE;;;TRUE;;FALSE;FALSE;FALSE;FALSE;FALSE;FALSE;FALSE;FALSE;FALSE;FALSE;0;Follow Yaw;-33;0;94.5;94.5;FALSE;FALSE;FALSE;FALSE;TRUE;FALSE;;TRUE;Normal;100;100;1024;1024;1024;1024;N;FALSE;FALSE;FALSE;FALSE;FALSE;0;FALSE;FALSE;FALSE;FALSE;87;86;48.346;48.34;10598;5272;12134;6067;48.346;48.34;TRUE;4.029;4.029;4.029;4.029;4.029;4.029;4.029;4.029;4.029;4.029;4.029;4.029;;FALSE;FALSE;TRUE;4.028;4.028;4.028;4.028;4.028;4.028;4.028;4.028;4.028;4.028;4.028;4.028;;FALSE;FALSE;16.198;8.046;82.5;82.5;78.2;81.3;82.5;82.5;2374;125;41;14;8;120859.6;16114.61;;Idle;;20;;10;;;7;Go Home;TRUE;TRUE;TRUE;FALSE;FALSE;FALSE;FALSE;FALSE;FALSE;FALSE;FALSE;FALSE;411.458.472.517.014;249.153.077.241.714;4.9;;1640.4;TRUE;1;1;FALSE;FALSE;FALSE;FALSE;;TRUE;FALSE;FALSE;Course Lock;820.2;296.2;22.9;6;E;W;2.46;2.9;Calm;FALSE;FALSE;Android;4.0.0;djiaircraft;1581F6GKB235T004;1W8DJCH00159E1;4LGZL5D007002W;6JYPL4FDA0026Q;364.7;0.1;406.8;3.982.647;7.605.596;21;0;djiaircraft;1581F6GKB235T004;1W8DJCH00159E1;4LGZL5D007002W;6JYPL4FDA0026Q;DJI Pilot;Android;4.0.0;082508BD-3795-F845-5409-048D259E487A;1581F6GKB235T004015Y;1W8DJCH00159E1;;4LGZL5D007002W;1W8DJCH00159E1;6JYPL4FDA0026Q;411.458.785;24.915.313;114.4;;
11/13/2025;3:30:26.54 PM;3m 51.3s;231.3;411.458.345.853.299;249.153.141.590.981;407.1;407.4;37.0;635;54.3;0.223694;0.447388;0;0.223694;-0.223694;0;0;0;-0.2;0.2;169;169;79.6;P-GPS (Brake);Other;;26;5;TRUE;;Matrice 350 RTK;FALSE;FALSE;;Smart;RC;FALSE;TRUE;FALSE;;;TRUE;;FALSE;FALSE;FALSE;FALSE;FALSE;FALSE;FALSE;FALSE;FALSE;FALSE;0;Follow Yaw;-33;0;94.5;94.5;FALSE;FALSE;FALSE;FALSE;TRUE;FALSE;;TRUE;Normal;100;100;1024;1024;1024;1024;N;FALSE;FALSE;FALSE;FALSE;FALSE;0;FALSE;FALSE;FALSE;FALSE;87;86;48.315;48.34;5308;5272;6067;6067;48.315;48.34;TRUE;4.028;4.028;4.028;4.028;4.028;4.028;4.028;4.028;4.028;4.028;4.028;4.028;;FALSE;FALSE;TRUE;4.028;4.028;4.028;4.028;4.028;4.028;4.028;4.028;4.028;4.028;4.028;4.028;;FALSE;FALSE;8.122;8.046;79.8;82.5;78.2;81.3;82.5;82.5;2373;125;41;14;8;120897.7;16119.69;;Idle;;20;;10;;;7;Go Home;TRUE;TRUE;TRUE;FALSE;FALSE;FALSE;FALSE;FALSE;FALSE;FALSE;FALSE;FALSE;411.458.472.517.014;249.153.077.241.714;4.9;;1640.4;TRUE;1;1;FALSE;FALSE;FALSE;FALSE;;TRUE;FALSE;FALSE;Course Lock;820.2;296.2;22.9;6;E;W;2.46;2.9;Calm;FALSE;TRUE;Android;4.0.0;djiaircraft;1581F6GKB235T004;1W8DJCH00159E1;4LGZL5D007002W;6JYPL4FDA0026Q;364.7;0.1;406.8;3.982.647;7.605.596;21;0;djiaircraft;1581F6GKB235T004;1W8DJCH00159E1;4LGZL5D007002W;6JYPL4FDA0026Q;DJI Pilot;Android;4.0.0;082508BD-3795-F845-5409-048D259E487A;1581F6GKB235T004015Y;1W8DJCH00159E1;;4LGZL5D007002W;1W8DJCH00159E1;6JYPL4FDA0026Q;411.458.785;24.915.313;114.4;;
11/13/2025;3:30:27.54 PM;3m 52.3s;232.3;411.458.345.722.608;249.153.141.997.651;407.1;407.4;37.0;635;54.5;0.223694;0.447388;0;0.223694;-0.223694;0;0;0;-0.2;0.4;169;169;66.4;P-GPS (Brake);Other;;26;5;TRUE;;Matrice 350 RTK;FALSE;FALSE;;Smart;RC;FALSE;TRUE;FALSE;;;TRUE;;FALSE;FALSE;FALSE;FALSE;FALSE;FALSE;FALSE;FALSE;FALSE;FALSE;0;Follow Yaw;-33;0;94.5;94.5;FALSE;FALSE;FALSE;FALSE;TRUE;FALSE;;TRUE;Normal;100;100;1024;1024;1024;1024;N;FALSE;FALSE;FALSE;FALSE;FALSE;0;FALSE;FALSE;FALSE;FALSE;87;86;48.31;48.331;5308;5272;6067;6067;48.31;48.331;TRUE;4.026;4.026;4.026;4.026;4.026;4.026;4.026;4.026;4.026;4.026;4.026;4.026;;FALSE;FALSE;TRUE;4.028;4.028;4.028;4.028;4.028;4.028;4.028;4.028;4.028;4.028;4.028;4.028;;FALSE;FALSE;8.152;8.046;79.8;82.5;78.2;81.3;82.5;82.5;2372;125;41;14;8;120943.8;16125.84;;Idle;;20;;10;;;7;Go Home;TRUE;TRUE;TRUE;FALSE;FALSE;FALSE;FALSE;FALSE;FALSE;FALSE;FALSE;FALSE;411.458.472.517.014;249.153.077.241.714;4.9;;1640.4;TRUE;1;1;FALSE;FALSE;FALSE;FALSE;;TRUE;FALSE;FALSE;Course Lock;820.2;296.2;22.9;6;E;W;2.46;2.9;Calm;FALSE;TRUE;Android;4.0.0;djiaircraft;1581F6GKB235T004;1W8DJCH00159E1;4LGZL5D007002W;6JYPL4FDA0026Q;364.7;0.1;406.8;3.982.647;7.605.596;21;0;djiaircraft;1581F6GKB235T004;1W8DJCH00159E1;4LGZL5D007002W;6JYPL4FDA0026Q;DJI Pilot;Android;4.0.0;082508BD-3795-F845-5409-048D259E487A;1581F6GKB235T004015Y;1W8DJCH00159E1;;4LGZL5D007002W;1W8DJCH00159E1;6JYPL4FDA0026Q;411.458.785;24.915.313;114.4;;
11/13/2025;3:30:34.84 PM;3m 59.6s;239.6;411.458.343.383.463;249.153.137.745.368;407.1;407.4;37.0;635;56.2;0.223694;0.447388;0;0.223694;-0.223694;0;0;0;-0.4;0.5;169.2;169.2;261.8;P-GPS (Brake);Other;;26;5;TRUE;;Matrice 350 RTK;FALSE;FALSE;;Smart;RC;FALSE;TRUE;FALSE;;;TRUE;;FALSE;FALSE;FALSE;FALSE;FALSE;FALSE;FALSE;FALSE;FALSE;FALSE;0;Follow Yaw;-20;0;90.3;90.3;FALSE;FALSE;FALSE;FALSE;TRUE;FALSE;;TRUE;Normal;100;100;1024;1024;1024;1024;N;FALSE;FALSE;FALSE;FALSE;FALSE;0;FALSE;FALSE;FALSE;FALSE;87;86;48.299;48.299;10526;5254;12134;6067;48.299;48.299;TRUE;4.026;4.026;4.026;4.026;4.026;4.026;4.026;4.026;4.026;4.026;4.026;4.026;;FALSE;FALSE;TRUE;4.025;4.025;4.025;4.025;4.025;4.025;4.025;4.025;4.025;4.025;4.025;4.025;;FALSE;FALSE;16.168;8.032;82.5;82.5;78.2;81.3;82.5;82.5;2359;125;41;14;8;121210.1;16161.34;;Idle;;20;;10;;;7;Go Home;TRUE;TRUE;TRUE;FALSE;FALSE;FALSE;FALSE;FALSE;FALSE;FALSE;FALSE;FALSE;411.458.472.517.014;249.153.077.241.714;4.9;;1640.4;TRUE;1;1;FALSE;FALSE;FALSE;FALSE;;TRUE;FALSE;FALSE;Course Lock;820.2;296.2;22.9;6;E;W;2.23;2.9;Calm;FALSE;FALSE;Android;4.0.0;djiaircraft;1581F6GKB235T004;1W8DJCH00159E1;4LGZL5D007002W;6JYPL4FDA0026Q;364.7;0.1;406.8;3.982.647;7.605.596;21;0;djiaircraft;1581F6GKB235T004;1W8DJCH00159E1;4LGZL5D007002W;6JYPL4FDA0026Q;DJI Pilot;Android;4.0.0;082508BD-3795-F845-5409-048D259E487A;1581F6GKB235T004015Y;1W8DJCH00159E1;;4LGZL5D007002W;1W8DJCH00159E1;6JYPL4FDA0026Q;411.458.763.333.333;249.153.043.333.333;114.4;;
